[
  {
    "default": {
      "code": "1",
      "codeHuyen": "1",
      "codeTinh": "HN",
      "fullName": "Quận Hoàn Kiếm, Hà Nội",
      "geometry": {
        "location": {
          "lat": 21.0303909,
          "lon": 105.854922
        },
        "viewport": {
          "northeast": {
            "lat": 21.0428538,
            "lon": 105.8682949
          },
          "southwest": {
            "lat": 21.017928,
            "lon": 105.841549
          }
        }
      },
      "ggMatched": true,
      "gg_formatted_address": "Hoàn Kiếm, Hanoi, Vietnam",
      "huyen": "Hoàn Kiếm",
      "huyenKhongDau": "hoan-kiem",
      "id": "Place_H_1",
      "nameKhongDau": "hoan-kiem",
      "parentId": "Place_T_HN",
      "placeName": "Hoàn Kiếm",
      "placeType": "H",
      "pre": "Quận",
      "tinh": "Hà Nội",
      "tinhKhongDau": "ha-noi",
      "type": "Place"
    }
  },
  {
    "default": {
      "code": "10",
      "codeHuyen": "10",
      "codeTinh": "HN",
      "fullName": "Huyện Đông Anh, Hà Nội",
      "geometry": {
        "location": {
          "lat": 21.1371715,
          "lon": 105.8297464
        },
        "viewport": {
          "northeast": {
            "lat": 21.2067267,
            "lon": 105.926607
          },
          "southwest": {
            "lat": 21.0676162,
            "lon": 105.7328858
          }
        }
      },
      "ggMatched": true,
      "gg_formatted_address": "Đông Anh, Hanoi, Vietnam",
      "huyen": "Đông Anh",
      "huyenKhongDau": "dong-anh",
      "id": "Place_H_10",
      "nameKhongDau": "dong-anh",
      "parentId": "Place_T_HN",
      "placeName": "Đông Anh",
      "placeType": "H",
      "pre": "Huyện",
      "tinh": "Hà Nội",
      "tinhKhongDau": "ha-noi",
      "type": "Place"
    }
  },
  {
    "default": {
      "code": "100",
      "codeHuyen": "100",
      "codeTinh": "VT",
      "fullName": "Huyện Tân Thành, Bà Rịa Vũng Tàu",
      "geometry": {
        "location": {
          "lat": 10.5913848,
          "lon": 107.0856599
        },
        "viewport": {
          "northeast": {
            "lat": 10.7160959,
            "lon": 107.173066
          },
          "southwest": {
            "lat": 10.4666737,
            "lon": 106.9982538
          }
        }
      },
      "ggMatched": true,
      "gg_formatted_address": "Tân Thành, Ba Ria - Vung Tau, Vietnam",
      "huyen": "Tân Thành",
      "huyenKhongDau": "tan-thanh",
      "id": "Place_H_100",
      "nameKhongDau": "tan-thanh",
      "parentId": "Place_T_VT",
      "placeName": "Tân Thành",
      "placeType": "H",
      "pre": "Huyện",
      "tinh": "Bà Rịa Vũng Tàu",
      "tinhKhongDau": "ba-ria-vung-tau",
      "type": "Place"
    }
  },
  {
    "default": {
      "code": "101",
      "codeHuyen": "101",
      "codeTinh": "VT",
      "fullName": "Huyện Xuyên Mộc, Bà Rịa Vũng Tàu",
      "geometry": {
        "location": {
          "lat": 10.6321335,
          "lon": 107.4614454
        },
        "viewport": {
          "northeast": {
            "lat": 10.804375,
            "lon": 107.582345
          },
          "southwest": {
            "lat": 10.4598919,
            "lon": 107.3405459
          }
        }
      },
      "ggMatched": true,
      "gg_formatted_address": "Xuyên Mộc District, Ba Ria - Vung Tau, Vietnam",
      "huyen": "Xuyên Mộc",
      "huyenKhongDau": "xuyen-moc",
      "id": "Place_H_101",
      "nameKhongDau": "xuyen-moc",
      "parentId": "Place_T_VT",
      "placeName": "Xuyên Mộc",
      "placeType": "H",
      "pre": "Huyện",
      "tinh": "Bà Rịa Vũng Tàu",
      "tinhKhongDau": "ba-ria-vung-tau",
      "type": "Place"
    }
  },
  {
    "default": {
      "code": "102",
      "codeHuyen": "102",
      "codeTinh": "VT",
      "fullName": "Thành phố Vũng Tàu, Bà Rịa Vũng Tàu",
      "geometry": {
        "location": {
          "lat": 10.4025116,
          "lon": 107.1266782
        },
        "viewport": {
          "northeast": {
            "lat": 10.4831196,
            "lon": 107.2117996
          },
          "southwest": {
            "lat": 10.3219036,
            "lon": 107.0415567
          }
        }
      },
      "ggMatched": true,
      "gg_formatted_address": "Vũng Tàu, Ba Ria - Vung Tau, Vietnam",
      "huyen": "Vũng Tàu",
      "huyenKhongDau": "vung-tau",
      "id": "Place_H_102",
      "nameKhongDau": "vung-tau",
      "parentId": "Place_T_VT",
      "placeName": "Vũng Tàu",
      "placeType": "H",
      "pre": "Thành phố",
      "tinh": "Bà Rịa Vũng Tàu",
      "tinhKhongDau": "ba-ria-vung-tau",
      "type": "Place"
    }
  },
  {
    "default": {
      "code": "103",
      "codeHuyen": "103",
      "codeTinh": "VT",
      "fullName": "Thị xã Bà Rịa, Bà Rịa Vũng Tàu",
      "geometry": {
        "location": {
          "lat": 10.508569,
          "lon": 107.1804453
        },
        "viewport": {
          "northeast": {
            "lat": 10.562762,
            "lon": 107.2467229
          },
          "southwest": {
            "lat": 10.454376,
            "lon": 107.1141678
          }
        }
      },
      "ggMatched": true,
      "gg_formatted_address": "Bà Rịa, Bà Rịa - Vũng Tàu, Vietnam",
      "huyen": "Bà Rịa",
      "huyenKhongDau": "ba-ria",
      "id": "Place_H_103",
      "nameKhongDau": "ba-ria",
      "parentId": "Place_T_VT",
      "placeName": "Bà Rịa",
      "placeType": "H",
      "pre": "Thị xã",
      "tinh": "Bà Rịa Vũng Tàu",
      "tinhKhongDau": "ba-ria-vung-tau",
      "type": "Place"
    }
  },
  {
    "default": {
      "code": "104",
      "codeHuyen": "104",
      "codeTinh": "BG",
      "fullName": "Huyện Hiệp Hòa, Bắc Giang",
      "geometry": {
        "location": {
          "lat": 21.3303912,
          "lon": 105.9598705
        },
        "viewport": {
          "northeast": {
            "lat": 21.437081,
            "lon": 106.039377
          },
          "southwest": {
            "lat": 21.2237014,
            "lon": 105.8803639
          }
        }
      },
      "ggMatched": true,
      "gg_formatted_address": "Hiệp Hòa, Bac Giang, Vietnam",
      "huyen": "Hiệp Hòa",
      "huyenKhongDau": "hiep-hoa",
      "id": "Place_H_104",
      "nameKhongDau": "hiep-hoa",
      "parentId": "Place_T_BG",
      "placeName": "Hiệp Hòa",
      "placeType": "H",
      "pre": "Huyện",
      "tinh": "Bắc Giang",
      "tinhKhongDau": "bac-giang",
      "type": "Place"
    }
  },
  {
    "default": {
      "code": "105",
      "codeHuyen": "105",
      "codeTinh": "BG",
      "fullName": "Huyện Lạng Giang, Bắc Giang",
      "geometry": {
        "location": {
          "lat": 21.3664895,
          "lon": 106.257572
        },
        "viewport": {
          "northeast": {
            "lat": 21.464219,
            "lon": 106.349388
          },
          "southwest": {
            "lat": 21.26876,
            "lon": 106.165756
          }
        }
      },
      "ggMatched": true,
      "gg_formatted_address": "Lạng Giang District, Bac Giang, Vietnam",
      "huyen": "Lạng Giang",
      "huyenKhongDau": "lang-giang",
      "id": "Place_H_105",
      "nameKhongDau": "lang-giang",
      "parentId": "Place_T_BG",
      "placeName": "Lạng Giang",
      "placeType": "H",
      "pre": "Huyện",
      "tinh": "Bắc Giang",
      "tinhKhongDau": "bac-giang",
      "type": "Place"
    }
  },
  {
    "default": {
      "code": "106",
      "codeHuyen": "106",
      "codeTinh": "BG",
      "fullName": "Huyện Lục Nam, Bắc Giang",
      "geometry": {
        "location": {
          "lat": 21.3047945,
          "lon": 106.4929144
        },
        "viewport": {
          "northeast": {
            "lat": 21.4436059,
            "lon": 106.695053
          },
          "southwest": {
            "lat": 21.165983,
            "lon": 106.2907758
          }
        }
      },
      "ggMatched": true,
      "gg_formatted_address": "Lục Nam District, Bac Giang, Vietnam",
      "huyen": "Lục Nam",
      "huyenKhongDau": "luc-nam",
      "id": "Place_H_106",
      "nameKhongDau": "luc-nam",
      "parentId": "Place_T_BG",
      "placeName": "Lục Nam",
      "placeType": "H",
      "pre": "Huyện",
      "tinh": "Bắc Giang",
      "tinhKhongDau": "bac-giang",
      "type": "Place"
    }
  },
  {
    "default": {
      "code": "107",
      "codeHuyen": "107",
      "codeTinh": "BG",
      "fullName": "Huyện Lục Ngạn, Bắc Giang",
      "geometry": {
        "location": {
          "lat": 21.4384029,
          "lon": 106.6538995
        },
        "viewport": {
          "northeast": {
            "lat": 21.6086648,
            "lon": 106.864979
          },
          "southwest": {
            "lat": 21.268141,
            "lon": 106.44282
          }
        }
      },
      "ggMatched": true,
      "gg_formatted_address": "Lục Ngạn District, Bac Giang, Vietnam",
      "huyen": "Lục Ngạn",
      "huyenKhongDau": "luc-ngan",
      "id": "Place_H_107",
      "nameKhongDau": "luc-ngan",
      "parentId": "Place_T_BG",
      "placeName": "Lục Ngạn",
      "placeType": "H",
      "pre": "Huyện",
      "tinh": "Bắc Giang",
      "tinhKhongDau": "bac-giang",
      "type": "Place"
    }
  },
  {
    "default": {
      "code": "108",
      "codeHuyen": "108",
      "codeTinh": "BG",
      "fullName": "Huyện Sơn Động, Bắc Giang",
      "geometry": {
        "location": {
          "lat": 21.3280814,
          "lon": 106.8535079
        },
        "viewport": {
          "northeast": {
            "lat": 21.506198,
            "lon": 107.0333649
          },
          "southwest": {
            "lat": 21.1499649,
            "lon": 106.673651
          }
        }
      },
      "ggMatched": true,
      "gg_formatted_address": "Sơn Động District, Bac Giang, Vietnam",
      "huyen": "Sơn Động",
      "huyenKhongDau": "son-dong",
      "id": "Place_H_108",
      "nameKhongDau": "son-dong",
      "parentId": "Place_T_BG",
      "placeName": "Sơn Động",
      "placeType": "H",
      "pre": "Huyện",
      "tinh": "Bắc Giang",
      "tinhKhongDau": "bac-giang",
      "type": "Place"
    }
  },
  {
    "default": {
      "code": "109",
      "codeHuyen": "109",
      "codeTinh": "BG",
      "fullName": "Huyện Tân Yên, Bắc Giang",
      "geometry": {
        "location": {
          "lat": 21.3891339,
          "lon": 106.099675
        },
        "viewport": {
          "northeast": {
            "lat": 21.4692179,
            "lon": 106.19343
          },
          "southwest": {
            "lat": 21.3090499,
            "lon": 106.00592
          }
        }
      },
      "ggMatched": true,
      "gg_formatted_address": "Tân Yên District, Bac Giang, Vietnam",
      "huyen": "Tân Yên",
      "huyenKhongDau": "tan-yen",
      "id": "Place_H_109",
      "nameKhongDau": "tan-yen",
      "parentId": "Place_T_BG",
      "placeName": "Tân Yên",
      "placeType": "H",
      "pre": "Huyện",
      "tinh": "Bắc Giang",
      "tinhKhongDau": "bac-giang",
      "type": "Place"
    }
  },
  {
    "default": {
      "code": "11",
      "codeHuyen": "11",
      "codeTinh": "HN",
      "fullName": "Huyện Gia Lâm, Hà Nội",
      "geometry": {
        "location": {
          "lat": 21.0224739,
          "lon": 105.9495409
        },
        "viewport": {
          "northeast": {
            "lat": 21.1201458,
            "lon": 106.0198859
          },
          "southwest": {
            "lat": 20.9248021,
            "lon": 105.8791959
          }
        }
      },
      "ggMatched": true,
      "gg_formatted_address": "Gia Lâm, Hanoi, Vietnam",
      "huyen": "Gia Lâm",
      "huyenKhongDau": "gia-lam",
      "id": "Place_H_11",
      "nameKhongDau": "gia-lam",
      "parentId": "Place_T_HN",
      "placeName": "Gia Lâm",
      "placeType": "H",
      "pre": "Huyện",
      "tinh": "Hà Nội",
      "tinhKhongDau": "ha-noi",
      "type": "Place"
    }
  },
  {
    "default": {
      "code": "110",
      "codeHuyen": "110",
      "codeTinh": "BG",
      "fullName": "Huyện Việt Yên, Bắc Giang",
      "geometry": {
        "location": {
          "lat": 21.2707441,
          "lon": 106.0851039
        },
        "viewport": {
          "northeast": {
            "lat": 21.3430519,
            "lon": 106.1669298
          },
          "southwest": {
            "lat": 21.1984363,
            "lon": 106.003278
          }
        }
      },
      "ggMatched": true,
      "gg_formatted_address": "Việt Yên District, Bac Giang, Vietnam",
      "huyen": "Việt Yên",
      "huyenKhongDau": "viet-yen",
      "id": "Place_H_110",
      "nameKhongDau": "viet-yen",
      "parentId": "Place_T_BG",
      "placeName": "Việt Yên",
      "placeType": "H",
      "pre": "Huyện",
      "tinh": "Bắc Giang",
      "tinhKhongDau": "bac-giang",
      "type": "Place"
    }
  },
  {
    "default": {
      "code": "111",
      "codeHuyen": "111",
      "codeTinh": "BG",
      "fullName": "Huyện Yên Dũng, Bắc Giang",
      "geometry": {
        "location": {
          "lat": 21.2058308,
          "lon": 106.2389074
        },
        "viewport": {
          "northeast": {
            "lat": 21.2873849,
            "lon": 106.337607
          },
          "southwest": {
            "lat": 21.1242766,
            "lon": 106.1402079
          }
        }
      },
      "ggMatched": true,
      "gg_formatted_address": "Yên Dũng District, Bac Giang, Vietnam",
      "huyen": "Yên Dũng",
      "huyenKhongDau": "yen-dung",
      "id": "Place_H_111",
      "nameKhongDau": "yen-dung",
      "parentId": "Place_T_BG",
      "placeName": "Yên Dũng",
      "placeType": "H",
      "pre": "Huyện",
      "tinh": "Bắc Giang",
      "tinhKhongDau": "bac-giang",
      "type": "Place"
    }
  },
  {
    "default": {
      "code": "112",
      "codeHuyen": "112",
      "codeTinh": "BG",
      "fullName": "Huyện Yên Thế, Bắc Giang",
      "geometry": {
        "location": {
          "lat": 21.5245254,
          "lon": 106.1591979
        },
        "viewport": {
          "northeast": {
            "lat": 21.6262909,
            "lon": 106.2879249
          },
          "southwest": {
            "lat": 21.42276,
            "lon": 106.0304709
          }
        }
      },
      "ggMatched": true,
      "gg_formatted_address": "Yên Thế District, Bac Giang, Vietnam",
      "huyen": "Yên Thế",
      "huyenKhongDau": "yen-the",
      "id": "Place_H_112",
      "nameKhongDau": "yen-the",
      "parentId": "Place_T_BG",
      "placeName": "Yên Thế",
      "placeType": "H",
      "pre": "Huyện",
      "tinh": "Bắc Giang",
      "tinhKhongDau": "bac-giang",
      "type": "Place"
    }
  },
  {
    "default": {
      "code": "113",
      "codeHuyen": "113",
      "codeTinh": "BG",
      "fullName": "Thành phố Bắc Giang, Bắc Giang",
      "geometry": {
        "location": {
          "lat": 21.2667303,
          "lon": 106.1990483
        },
        "viewport": {
          "northeast": {
            "lat": 21.3203608,
            "lon": 106.2582207
          },
          "southwest": {
            "lat": 21.2130999,
            "lon": 106.1398759
          }
        }
      },
      "ggMatched": true,
      "gg_formatted_address": "tp. Bắc Giang, Bắc Giang, Vietnam",
      "huyen": "Bắc Giang",
      "huyenKhongDau": "bac-giang",
      "id": "Place_H_113",
      "nameKhongDau": "bac-giang",
      "parentId": "Place_T_BG",
      "placeName": "Bắc Giang",
      "placeType": "H",
      "pre": "Thành phố",
      "tinh": "Bắc Giang",
      "tinhKhongDau": "bac-giang",
      "type": "Place"
    }
  },
  {
    "default": {
      "code": "114",
      "codeHuyen": "114",
      "codeTinh": "BK",
      "fullName": "Huyện Ba Bể, Bắc Kạn",
      "geometry": {
        "location": {
          "lat": 22.4112714,
          "lon": 105.7264439
        },
        "viewport": {
          "northeast": {
            "lat": 22.5520569,
            "lon": 105.9046299
          },
          "southwest": {
            "lat": 22.2704859,
            "lon": 105.5482579
          }
        }
      },
      "ggMatched": true,
      "gg_formatted_address": "Ba Bể District, Bắc Kạn Province, Vietnam",
      "huyen": "Ba Bể",
      "huyenKhongDau": "ba-be",
      "id": "Place_H_114",
      "nameKhongDau": "ba-be",
      "parentId": "Place_T_BK",
      "placeName": "Ba Bể",
      "placeType": "H",
      "pre": "Huyện",
      "tinh": "Bắc Kạn",
      "tinhKhongDau": "bac-kan",
      "type": "Place"
    }
  },
  {
    "default": {
      "code": "115",
      "codeHuyen": "115",
      "codeTinh": "BK",
      "fullName": "Huyện Bạch Thông, Bắc Kạn",
      "geometry": {
        "location": {
          "lat": 22.2020024,
          "lon": 105.849979
        },
        "viewport": {
          "northeast": {
            "lat": 22.3177919,
            "lon": 106.048652
          },
          "southwest": {
            "lat": 22.0862129,
            "lon": 105.6513059
          }
        }
      },
      "ggMatched": true,
      "gg_formatted_address": "Bạch Thông District, Bắc Kạn Province, Vietnam",
      "huyen": "Bạch Thông",
      "huyenKhongDau": "bach-thong",
      "id": "Place_H_115",
      "nameKhongDau": "bach-thong",
      "parentId": "Place_T_BK",
      "placeName": "Bạch Thông",
      "placeType": "H",
      "pre": "Huyện",
      "tinh": "Bắc Kạn",
      "tinhKhongDau": "bac-kan",
      "type": "Place"
    }
  },
  {
    "default": {
      "code": "116",
      "codeHuyen": "116",
      "codeTinh": "BK",
      "fullName": "Huyện Chợ Đồn, Bắc Kạn",
      "geometry": {
        "location": {
          "lat": 22.187292,
          "lon": 105.579418
        },
        "viewport": {
          "northeast": {
            "lat": 22.4190881,
            "lon": 105.727965
          },
          "southwest": {
            "lat": 21.955496,
            "lon": 105.430871
          }
        }
      },
      "ggMatched": true,
      "gg_formatted_address": "Chợ Đồn District, Bắc Kạn Province, Vietnam",
      "huyen": "Chợ Đồn",
      "huyenKhongDau": "cho-don",
      "id": "Place_H_116",
      "nameKhongDau": "cho-don",
      "parentId": "Place_T_BK",
      "placeName": "Chợ Đồn",
      "placeType": "H",
      "pre": "Huyện",
      "tinh": "Bắc Kạn",
      "tinhKhongDau": "bac-kan",
      "type": "Place"
    }
  },
  {
    "default": {
      "code": "117",
      "codeHuyen": "117",
      "codeTinh": "BK",
      "fullName": "Huyện Chợ Mới, Bắc Kạn",
      "geometry": {
        "location": {
          "lat": 21.9651489,
          "lon": 105.8581929
        },
        "viewport": {
          "northeast": {
            "lat": 22.1259849,
            "lon": 106.024161
          },
          "southwest": {
            "lat": 21.804313,
            "lon": 105.6922248
          }
        }
      },
      "ggMatched": true,
      "gg_formatted_address": "Chợ Mới District, Bắc Kạn Province, Vietnam",
      "huyen": "Chợ Mới",
      "huyenKhongDau": "cho-moi",
      "id": "Place_H_117",
      "nameKhongDau": "cho-moi",
      "parentId": "Place_T_BK",
      "placeName": "Chợ Mới",
      "placeType": "H",
      "pre": "Huyện",
      "tinh": "Bắc Kạn",
      "tinhKhongDau": "bac-kan",
      "type": "Place"
    }
  },
  {
    "default": {
      "code": "118",
      "codeHuyen": "118",
      "codeTinh": "BK",
      "fullName": "Huyện Na Rì, Bắc Kạn",
      "geometry": {
        "location": {
          "lat": 22.1630825,
          "lon": 106.08686
        },
        "viewport": {
          "northeast": {
            "lat": 22.3880519,
            "lon": 106.246758
          },
          "southwest": {
            "lat": 21.938113,
            "lon": 105.926962
          }
        }
      },
      "ggMatched": true,
      "gg_formatted_address": "Na Rì District, Bắc Kạn Province, Vietnam",
      "huyen": "Na Rì",
      "huyenKhongDau": "na-ri",
      "id": "Place_H_118",
      "nameKhongDau": "na-ri",
      "parentId": "Place_T_BK",
      "placeName": "Na Rì",
      "placeType": "H",
      "pre": "Huyện",
      "tinh": "Bắc Kạn",
      "tinhKhongDau": "bac-kan",
      "type": "Place"
    }
  },
  {
    "default": {
      "code": "119",
      "codeHuyen": "119",
      "codeTinh": "BK",
      "fullName": "Huyện Ngân Sơn, Bắc Kạn",
      "geometry": {
        "location": {
          "lat": 22.4313025,
          "lon": 106.0173214
        },
        "viewport": {
          "northeast": {
            "lat": 22.578125,
            "lon": 106.1843659
          },
          "southwest": {
            "lat": 22.28448,
            "lon": 105.850277
          }
        }
      },
      "ggMatched": true,
      "gg_formatted_address": "Ngân Sơn, Bắc Kạn Province, Vietnam",
      "huyen": "Ngân Sơn",
      "huyenKhongDau": "ngan-son",
      "id": "Place_H_119",
      "nameKhongDau": "ngan-son",
      "parentId": "Place_T_BK",
      "placeName": "Ngân Sơn",
      "placeType": "H",
      "pre": "Huyện",
      "tinh": "Bắc Kạn",
      "tinhKhongDau": "bac-kan",
      "type": "Place"
    }
  },
  {
    "default": {
      "code": "12",
      "codeHuyen": "12",
      "codeTinh": "HN",
      "fullName": "Huyện Sóc Sơn, Hà Nội",
      "geometry": {
        "location": {
          "lat": 21.2811044,
          "lon": 105.8307049
        },
        "viewport": {
          "northeast": {
            "lat": 21.385027,
            "lon": 105.9384438
          },
          "southwest": {
            "lat": 21.1771818,
            "lon": 105.722966
          }
        }
      },
      "ggMatched": true,
      "gg_formatted_address": "Sóc Sơn, Hanoi, Vietnam",
      "huyen": "Sóc Sơn",
      "huyenKhongDau": "soc-son",
      "id": "Place_H_12",
      "nameKhongDau": "soc-son",
      "parentId": "Place_T_HN",
      "placeName": "Sóc Sơn",
      "placeType": "H",
      "pre": "Huyện",
      "tinh": "Hà Nội",
      "tinhKhongDau": "ha-noi",
      "type": "Place"
    }
  },
  {
    "default": {
      "code": "120",
      "codeHuyen": "120",
      "codeTinh": "BK",
      "fullName": "Huyện Pác Nặm, Bắc Kạn",
      "geometry": {
        "location": {
          "lat": 22.6098275,
          "lon": 105.6542754
        },
        "viewport": {
          "northeast": {
            "lat": 22.74044,
            "lon": 105.7795399
          },
          "southwest": {
            "lat": 22.479215,
            "lon": 105.5290109
          }
        }
      },
      "ggMatched": true,
      "gg_formatted_address": "Pác Nặm District, Bắc Kạn Province, Vietnam",
      "huyen": "Pác Nặm",
      "huyenKhongDau": "pac-nam",
      "id": "Place_H_120",
      "nameKhongDau": "pac-nam",
      "parentId": "Place_T_BK",
      "placeName": "Pác Nặm",
      "placeType": "H",
      "pre": "Huyện",
      "tinh": "Bắc Kạn",
      "tinhKhongDau": "bac-kan",
      "type": "Place"
    }
  },
  {
    "default": {
      "code": "121",
      "codeHuyen": "121",
      "codeTinh": "BK",
      "fullName": "Thị xã Bắc Kạn, Bắc Kạn",
      "geometry": {
        "location": {
          "lat": 22.1317387,
          "lon": 105.8537865
        },
        "viewport": {
          "northeast": {
            "lat": 22.2115634,
            "lon": 105.9308624
          },
          "southwest": {
            "lat": 22.051914,
            "lon": 105.7767105
          }
        }
      },
      "ggMatched": true,
      "gg_formatted_address": "tp. Bắc Kạn, Bắc Kạn, Vietnam",
      "huyen": "Bắc Kạn",
      "huyenKhongDau": "bac-kan",
      "id": "Place_H_121",
      "nameKhongDau": "bac-kan",
      "parentId": "Place_T_BK",
      "placeName": "Bắc Kạn",
      "placeType": "H",
      "pre": "Thị xã",
      "tinh": "Bắc Kạn",
      "tinhKhongDau": "bac-kan",
      "type": "Place"
    }
  },
  {
    "default": {
      "code": "122",
      "codeHuyen": "122",
      "codeTinh": "BL",
      "fullName": "Huyện Đông Hải, Bạc Liêu",
      "geometry": {
        "location": {
          "lat": 9.1393288,
          "lon": 105.4122036
        },
        "viewport": {
          "northeast": {
            "lat": 9.2586629,
            "lon": 105.5795382
          },
          "southwest": {
            "lat": 9.0199946,
            "lon": 105.244869
          }
        }
      },
      "ggMatched": true,
      "gg_formatted_address": "Dong Hai, Bac Lieu, Vietnam",
      "huyen": "Đông Hải",
      "huyenKhongDau": "dong-hai",
      "id": "Place_H_122",
      "nameKhongDau": "dong-hai",
      "parentId": "Place_T_BL",
      "placeName": "Đông Hải",
      "placeType": "H",
      "pre": "Huyện",
      "tinh": "Bạc Liêu",
      "tinhKhongDau": "bac-lieu",
      "type": "Place"
    }
  },
  {
    "default": {
      "code": "123",
      "codeHuyen": "123",
      "codeTinh": "BL",
      "fullName": "Huyện Giá Rai, Bạc Liêu",
      "geometry": {
        "location": {
          "lat": 9.2632734,
          "lon": 105.390119
        },
        "viewport": {
          "northeast": {
            "lat": 9.3525729,
            "lon": 105.548034
          },
          "southwest": {
            "lat": 9.173974,
            "lon": 105.2322039
          }
        }
      },
      "ggMatched": true,
      "gg_formatted_address": "Giá Rai District, Bac Lieu, Vietnam",
      "huyen": "Giá Rai",
      "huyenKhongDau": "gia-rai",
      "id": "Place_H_123",
      "nameKhongDau": "gia-rai",
      "parentId": "Place_T_BL",
      "placeName": "Giá Rai",
      "placeType": "H",
      "pre": "Huyện",
      "tinh": "Bạc Liêu",
      "tinhKhongDau": "bac-lieu",
      "type": "Place"
    }
  },
  {
    "default": {
      "code": "124",
      "codeHuyen": "124",
      "codeTinh": "BL",
      "fullName": "Huyện Hòa Bình, Bạc Liêu",
      "geometry": {
        "location": {
          "lat": 9.2616821,
          "lon": 105.6183044
        },
        "viewport": {
          "northeast": {
            "lat": 9.380152899999999,
            "lon": 105.7296689
          },
          "southwest": {
            "lat": 9.143211299999999,
            "lon": 105.5069399
          }
        }
      },
      "ggMatched": true,
      "gg_formatted_address": "Hòa Bình, Bac Lieu, Vietnam",
      "huyen": "Hòa Bình",
      "huyenKhongDau": "hoa-binh",
      "id": "Place_H_124",
      "nameKhongDau": "hoa-binh",
      "parentId": "Place_T_BL",
      "placeName": "Hòa Bình",
      "placeType": "H",
      "pre": "Huyện",
      "tinh": "Bạc Liêu",
      "tinhKhongDau": "bac-lieu",
      "type": "Place"
    }
  },
  {
    "default": {
      "code": "125",
      "codeHuyen": "125",
      "codeTinh": "BL",
      "fullName": "Huyện Hồng Dân, Bạc Liêu",
      "geometry": {
        "location": {
          "lat": 9.5090057,
          "lon": 105.408072
        },
        "viewport": {
          "northeast": {
            "lat": 9.6370404,
            "lon": 105.554294
          },
          "southwest": {
            "lat": 9.380970999999999,
            "lon": 105.26185
          }
        }
      },
      "ggMatched": true,
      "gg_formatted_address": "Hồng Dân District, Bac Lieu, Vietnam",
      "huyen": "Hồng Dân",
      "huyenKhongDau": "hong-dan",
      "id": "Place_H_125",
      "nameKhongDau": "hong-dan",
      "parentId": "Place_T_BL",
      "placeName": "Hồng Dân",
      "placeType": "H",
      "pre": "Huyện",
      "tinh": "Bạc Liêu",
      "tinhKhongDau": "bac-lieu",
      "type": "Place"
    }
  },
  {
    "default": {
      "code": "126",
      "codeHuyen": "126",
      "codeTinh": "BL",
      "fullName": "Huyện Phước Long, Bạc Liêu",
      "geometry": {
        "location": {
          "lat": 9.3858512,
          "lon": 105.41222
        },
        "viewport": {
          "northeast": {
            "lat": 9.4926949,
            "lon": 105.577667
          },
          "southwest": {
            "lat": 9.2790076,
            "lon": 105.246773
          }
        }
      },
      "ggMatched": true,
      "gg_formatted_address": "Phước Long, Bac Lieu, Vietnam",
      "huyen": "Phước Long",
      "huyenKhongDau": "phuoc-long",
      "id": "Place_H_126",
      "nameKhongDau": "phuoc-long",
      "parentId": "Place_T_BL",
      "placeName": "Phước Long",
      "placeType": "H",
      "pre": "Huyện",
      "tinh": "Bạc Liêu",
      "tinhKhongDau": "bac-lieu",
      "type": "Place"
    }
  },
  {
    "default": {
      "code": "127",
      "codeHuyen": "127",
      "codeTinh": "BL",
      "fullName": "Huyện Vĩnh Lợi, Bạc Liêu",
      "geometry": {
        "location": {
          "lat": 9.3422724,
          "lon": 105.7043675
        },
        "viewport": {
          "northeast": {
            "lat": 9.424658899999999,
            "lon": 105.859674
          },
          "southwest": {
            "lat": 9.2598859,
            "lon": 105.549061
          }
        }
      },
      "ggMatched": true,
      "gg_formatted_address": "Vĩnh Lợi, Bạc Liêu, Vietnam",
      "huyen": "Vĩnh Lợi",
      "huyenKhongDau": "vinh-loi",
      "id": "Place_H_127",
      "nameKhongDau": "vinh-loi",
      "parentId": "Place_T_BL",
      "placeName": "Vĩnh Lợi",
      "placeType": "H",
      "pre": "Huyện",
      "tinh": "Bạc Liêu",
      "tinhKhongDau": "bac-lieu",
      "type": "Place"
    }
  },
  {
    "default": {
      "code": "128",
      "codeHuyen": "128",
      "codeTinh": "BL",
      "fullName": "Thành phố Bạc Liêu, Bạc Liêu",
      "geometry": {
        "location": {
          "lat": 9.2681733,
          "lon": 105.7534993
        },
        "viewport": {
          "northeast": {
            "lat": 9.3391308,
            "lon": 105.8273505
          },
          "southwest": {
            "lat": 9.197215800000002,
            "lon": 105.679648
          }
        }
      },
      "ggMatched": true,
      "gg_formatted_address": "tp. Bạc Liêu, Bạc Liêu, Vietnam",
      "huyen": "Bạc Liêu",
      "huyenKhongDau": "bac-lieu",
      "id": "Place_H_128",
      "nameKhongDau": "bac-lieu",
      "parentId": "Place_T_BL",
      "placeName": "Bạc Liêu",
      "placeType": "H",
      "pre": "Thành phố",
      "tinh": "Bạc Liêu",
      "tinhKhongDau": "bac-lieu",
      "type": "Place"
    }
  },
  {
    "default": {
      "code": "129",
      "codeHuyen": "129",
      "codeTinh": "BN",
      "fullName": "Huyện Gia Bình, Bắc Ninh",
      "geometry": {
        "location": {
          "lat": 21.0628684,
          "lon": 106.218308
        },
        "viewport": {
          "northeast": {
            "lat": 21.1133138,
            "lon": 106.307173
          },
          "southwest": {
            "lat": 21.0124229,
            "lon": 106.129443
          }
        }
      },
      "ggMatched": true,
      "gg_formatted_address": "Gia Bình District, Bac Ninh Province, Vietnam",
      "huyen": "Gia Bình",
      "huyenKhongDau": "gia-binh",
      "id": "Place_H_129",
      "nameKhongDau": "gia-binh",
      "parentId": "Place_T_BN",
      "placeName": "Gia Bình",
      "placeType": "H",
      "pre": "Huyện",
      "tinh": "Bắc Ninh",
      "tinhKhongDau": "bac-ninh",
      "type": "Place"
    }
  },
  {
    "default": {
      "code": "13",
      "codeHuyen": "13",
      "codeTinh": "HN",
      "fullName": "Huyện Thanh Trì, Hà Nội",
      "geometry": {
        "location": {
          "lat": 20.94283,
          "lon": 105.8494979
        },
        "viewport": {
          "northeast": {
            "lat": 20.987914,
            "lon": 105.9102489
          },
          "southwest": {
            "lat": 20.897746,
            "lon": 105.788747
          }
        }
      },
      "ggMatched": true,
      "gg_formatted_address": "Thanh Trì, Hanoi, Vietnam",
      "huyen": "Thanh Trì",
      "huyenKhongDau": "thanh-tri",
      "id": "Place_H_13",
      "nameKhongDau": "thanh-tri",
      "parentId": "Place_T_HN",
      "placeName": "Thanh Trì",
      "placeType": "H",
      "pre": "Huyện",
      "tinh": "Hà Nội",
      "tinhKhongDau": "ha-noi",
      "type": "Place"
    }
  },
  {
    "default": {
      "code": "130",
      "codeHuyen": "130",
      "codeTinh": "BN",
      "fullName": "Huyện Lương Tài, Bắc Ninh",
      "geometry": {
        "location": {
          "lat": 21.0260264,
          "lon": 106.2231788
        },
        "viewport": {
          "northeast": {
            "lat": 21.082674,
            "lon": 106.3085117
          },
          "southwest": {
            "lat": 20.9693789,
            "lon": 106.137846
          }
        }
      },
      "ggMatched": true,
      "gg_formatted_address": "Lương Tài District, Bac Ninh Province, Vietnam",
      "huyen": "Lương Tài",
      "huyenKhongDau": "luong-tai",
      "id": "Place_H_130",
      "nameKhongDau": "luong-tai",
      "parentId": "Place_T_BN",
      "placeName": "Lương Tài",
      "placeType": "H",
      "pre": "Huyện",
      "tinh": "Bắc Ninh",
      "tinhKhongDau": "bac-ninh",
      "type": "Place"
    }
  },
  {
    "default": {
      "code": "131",
      "codeHuyen": "131",
      "codeTinh": "BN",
      "fullName": "Huyện Quế Võ, Bắc Ninh",
      "geometry": {
        "location": {
          "lat": 21.1448931,
          "lon": 106.1940591
        },
        "viewport": {
          "northeast": {
            "lat": 21.214824,
            "lon": 106.2977772
          },
          "southwest": {
            "lat": 21.0749621,
            "lon": 106.090341
          }
        }
      },
      "ggMatched": true,
      "gg_formatted_address": "Quế Võ District, Bac Ninh Province, Vietnam",
      "huyen": "Quế Võ",
      "huyenKhongDau": "que-vo",
      "id": "Place_H_131",
      "nameKhongDau": "que-vo",
      "parentId": "Place_T_BN",
      "placeName": "Quế Võ",
      "placeType": "H",
      "pre": "Huyện",
      "tinh": "Bắc Ninh",
      "tinhKhongDau": "bac-ninh",
      "type": "Place"
    }
  },
  {
    "default": {
      "code": "132",
      "codeHuyen": "132",
      "codeTinh": "BN",
      "fullName": "Huyện Thuận Thành, Bắc Ninh",
      "geometry": {
        "location": {
          "lat": 21.0387993,
          "lon": 106.0699115
        },
        "viewport": {
          "northeast": {
            "lat": 21.0937595,
            "lon": 106.140848
          },
          "southwest": {
            "lat": 20.983839,
            "lon": 105.9989749
          }
        }
      },
      "ggMatched": true,
      "gg_formatted_address": "Thuận Thành, Bac Ninh Province, Vietnam",
      "huyen": "Thuận Thành",
      "huyenKhongDau": "thuan-thanh",
      "id": "Place_H_132",
      "nameKhongDau": "thuan-thanh",
      "parentId": "Place_T_BN",
      "placeName": "Thuận Thành",
      "placeType": "H",
      "pre": "Huyện",
      "tinh": "Bắc Ninh",
      "tinhKhongDau": "bac-ninh",
      "type": "Place"
    }
  },
  {
    "default": {
      "code": "133",
      "codeHuyen": "133",
      "codeTinh": "BN",
      "fullName": "Huyện Tiên Du, Bắc Ninh",
      "geometry": {
        "location": {
          "lat": 21.1259004,
          "lon": 106.042457
        },
        "viewport": {
          "northeast": {
            "lat": 21.184686,
            "lon": 106.111952
          },
          "southwest": {
            "lat": 21.0671149,
            "lon": 105.9729619
          }
        }
      },
      "ggMatched": true,
      "gg_formatted_address": "Tiên Du District, Bac Ninh Province, Vietnam",
      "huyen": "Tiên Du",
      "huyenKhongDau": "tien-du",
      "id": "Place_H_133",
      "nameKhongDau": "tien-du",
      "parentId": "Place_T_BN",
      "placeName": "Tiên Du",
      "placeType": "H",
      "pre": "Huyện",
      "tinh": "Bắc Ninh",
      "tinhKhongDau": "bac-ninh",
      "type": "Place"
    }
  },
  {
    "default": {
      "code": "134",
      "codeHuyen": "134",
      "codeTinh": "BN",
      "fullName": "Thị xã Từ Sơn, Bắc Ninh",
      "geometry": {
        "location": {
          "lat": 21.118374,
          "lon": 105.9563111
        },
        "viewport": {
          "northeast": {
            "lat": 21.166724,
            "lon": 105.999441
          },
          "southwest": {
            "lat": 21.0700241,
            "lon": 105.9131812
          }
        }
      },
      "ggMatched": true,
      "gg_formatted_address": "tx. Từ Sơn, Bắc Ninh, Vietnam",
      "huyen": "Từ Sơn",
      "huyenKhongDau": "tu-son",
      "id": "Place_H_134",
      "nameKhongDau": "tu-son",
      "parentId": "Place_T_BN",
      "placeName": "Từ Sơn",
      "placeType": "H",
      "pre": "Thị xã",
      "tinh": "Bắc Ninh",
      "tinhKhongDau": "bac-ninh",
      "type": "Place"
    }
  },
  {
    "default": {
      "code": "135",
      "codeHuyen": "135",
      "codeTinh": "BN",
      "fullName": "Huyện Yên Phong, Bắc Ninh",
      "geometry": {
        "location": {
          "lat": 21.2126053,
          "lon": 105.9643482
        },
        "viewport": {
          "northeast": {
            "lat": 21.2635677,
            "lon": 106.0396526
          },
          "southwest": {
            "lat": 21.1616429,
            "lon": 105.8890438
          }
        }
      },
      "ggMatched": true,
      "gg_formatted_address": "Yên Phong, Bac Ninh Province, Vietnam",
      "huyen": "Yên Phong",
      "huyenKhongDau": "yen-phong",
      "id": "Place_H_135",
      "nameKhongDau": "yen-phong",
      "parentId": "Place_T_BN",
      "placeName": "Yên Phong",
      "placeType": "H",
      "pre": "Huyện",
      "tinh": "Bắc Ninh",
      "tinhKhongDau": "bac-ninh",
      "type": "Place"
    }
  },
  {
    "default": {
      "code": "136",
      "codeHuyen": "136",
      "codeTinh": "BN",
      "fullName": "Thành phố Bắc Ninh, Bắc Ninh",
      "geometry": {
        "location": {
          "lat": 21.1766606,
          "lon": 106.0769677
        },
        "viewport": {
          "northeast": {
            "lat": 21.2275836,
            "lon": 106.1350965
          },
          "southwest": {
            "lat": 21.1257377,
            "lon": 106.0188388
          }
        }
      },
      "ggMatched": true,
      "gg_formatted_address": "tp. Bắc Ninh, Bắc Ninh, Vietnam",
      "huyen": "Bắc Ninh",
      "huyenKhongDau": "bac-ninh",
      "id": "Place_H_136",
      "nameKhongDau": "bac-ninh",
      "parentId": "Place_T_BN",
      "placeName": "Bắc Ninh",
      "placeType": "H",
      "pre": "Thành phố",
      "tinh": "Bắc Ninh",
      "tinhKhongDau": "bac-ninh",
      "type": "Place"
    }
  },
  {
    "default": {
      "code": "137",
      "codeHuyen": "137",
      "codeTinh": "BTR",
      "fullName": "Huyện Ba Tri, Bến Tre",
      "geometry": {
        "location": {
          "lat": 10.078576,
          "lon": 106.5842953
        },
        "viewport": {
          "northeast": {
            "lat": 10.18628,
            "lon": 106.6990587
          },
          "southwest": {
            "lat": 9.970872,
            "lon": 106.469532
          }
        }
      },
      "ggMatched": true,
      "gg_formatted_address": "Ba Tri District, Ben Tre, Vietnam",
      "huyen": "Ba Tri",
      "huyenKhongDau": "ba-tri",
      "id": "Place_H_137",
      "nameKhongDau": "ba-tri",
      "parentId": "Place_T_BTR",
      "placeName": "Ba Tri",
      "placeType": "H",
      "pre": "Huyện",
      "tinh": "Bến Tre",
      "tinhKhongDau": "ben-tre",
      "type": "Place"
    }
  },
  {
    "default": {
      "code": "138",
      "codeHuyen": "138",
      "codeTinh": "BTR",
      "fullName": "Huyện Bình Đại, Bến Tre",
      "geometry": {
        "location": {
          "lat": 10.1681387,
          "lon": 106.6192644
        },
        "viewport": {
          "northeast": {
            "lat": 10.3037222,
            "lon": 106.7976378
          },
          "southwest": {
            "lat": 10.0325552,
            "lon": 106.440891
          }
        }
      },
      "ggMatched": true,
      "gg_formatted_address": "Bình Đại District, Ben Tre, Vietnam",
      "huyen": "Bình Đại",
      "huyenKhongDau": "binh-dai",
      "id": "Place_H_138",
      "nameKhongDau": "binh-dai",
      "parentId": "Place_T_BTR",
      "placeName": "Bình Đại",
      "placeType": "H",
      "pre": "Huyện",
      "tinh": "Bến Tre",
      "tinhKhongDau": "ben-tre",
      "type": "Place"
    }
  },
  {
    "default": {
      "code": "139",
      "codeHuyen": "139",
      "codeTinh": "BTR",
      "fullName": "Huyện Châu Thành, Bến Tre",
      "geometry": {
        "location": {
          "lat": 10.2876776,
          "lon": 106.2983713
        },
        "viewport": {
          "northeast": {
            "lat": 10.3373312,
            "lon": 106.4476433
          },
          "southwest": {
            "lat": 10.238024,
            "lon": 106.1490992
          }
        }
      },
      "ggMatched": true,
      "gg_formatted_address": "Châu Thành, Bến Tre, Vietnam",
      "huyen": "Châu Thành",
      "huyenKhongDau": "chau-thanh",
      "id": "Place_H_139",
      "nameKhongDau": "chau-thanh",
      "parentId": "Place_T_BTR",
      "placeName": "Châu Thành",
      "placeType": "H",
      "pre": "Huyện",
      "tinh": "Bến Tre",
      "tinhKhongDau": "ben-tre",
      "type": "Place"
    }
  },
  {
    "default": {
      "code": "14",
      "codeHuyen": "14",
      "codeTinh": "HN",
      "fullName": "Quận Nam Từ Liêm, Hà Nội",
      "geometry": {
        "location": {
          "lat": 21.0195415,
          "lon": 105.7615914
        },
        "viewport": {
          "northeast": {
            "lat": 21.0589091,
            "lon": 105.796817
          },
          "southwest": {
            "lat": 20.980174,
            "lon": 105.7263659
          }
        }
      },
      "ggMatched": true,
      "gg_formatted_address": "Nam Từ Liêm, Hà Nội, Vietnam",
      "huyen": "Nam Từ Liêm",
      "huyenKhongDau": "nam-tu-liem",
      "id": "Place_H_14",
      "nameKhongDau": "nam-tu-liem",
      "parentId": "Place_T_HN",
      "placeName": "Nam Từ Liêm",
      "placeType": "H",
      "pre": "Quận",
      "tinh": "Hà Nội",
      "tinhKhongDau": "ha-noi",
      "type": "Place"
    }
  },
  {
    "default": {
      "code": "140",
      "codeHuyen": "140",
      "codeTinh": "BTR",
      "fullName": "Huyện Chợ Lách, Bến Tre",
      "geometry": {
        "location": {
          "lat": 10.2223588,
          "lon": 106.153924
        },
        "viewport": {
          "northeast": {
            "lat": 10.2936864,
            "lon": 106.280075
          },
          "southwest": {
            "lat": 10.1510312,
            "lon": 106.027773
          }
        }
      },
      "ggMatched": true,
      "gg_formatted_address": "Chợ Lách District, Ben Tre, Vietnam",
      "huyen": "Chợ Lách",
      "huyenKhongDau": "cho-lach",
      "id": "Place_H_140",
      "nameKhongDau": "cho-lach",
      "parentId": "Place_T_BTR",
      "placeName": "Chợ Lách",
      "placeType": "H",
      "pre": "Huyện",
      "tinh": "Bến Tre",
      "tinhKhongDau": "ben-tre",
      "type": "Place"
    }
  },
  {
    "default": {
      "code": "141",
      "codeHuyen": "141",
      "codeTinh": "BTR",
      "fullName": "Huyện Giồng Trôm, Bến Tre",
      "geometry": {
        "location": {
          "lat": 10.1500517,
          "lon": 106.4740305
        },
        "viewport": {
          "northeast": {
            "lat": 10.2646395,
            "lon": 106.586454
          },
          "southwest": {
            "lat": 10.0354639,
            "lon": 106.3616069
          }
        }
      },
      "ggMatched": true,
      "gg_formatted_address": "Giồng Trôm District, Ben Tre, Vietnam",
      "huyen": "Giồng Trôm",
      "huyenKhongDau": "giong-trom",
      "id": "Place_H_141",
      "nameKhongDau": "giong-trom",
      "parentId": "Place_T_BTR",
      "placeName": "Giồng Trôm",
      "placeType": "H",
      "pre": "Huyện",
      "tinh": "Bến Tre",
      "tinhKhongDau": "ben-tre",
      "type": "Place"
    }
  },
  {
    "default": {
      "code": "143",
      "codeHuyen": "143",
      "codeTinh": "BTR",
      "fullName": "Huyện Thạnh Phú, Bến Tre",
      "geometry": {
        "location": {
          "lat": 9.9313347,
          "lon": 106.546449
        },
        "viewport": {
          "northeast": {
            "lat": 10.0674643,
            "lon": 106.6863952
          },
          "southwest": {
            "lat": 9.7952051,
            "lon": 106.4065027
          }
        }
      },
      "ggMatched": true,
      "gg_formatted_address": "Thạnh Phú District, Ben Tre, Vietnam",
      "huyen": "Thạnh Phú",
      "huyenKhongDau": "thanh-phu",
      "id": "Place_H_143",
      "nameKhongDau": "thanh-phu",
      "parentId": "Place_T_BTR",
      "placeName": "Thạnh Phú",
      "placeType": "H",
      "pre": "Huyện",
      "tinh": "Bến Tre",
      "tinhKhongDau": "ben-tre",
      "type": "Place"
    }
  },
  {
    "default": {
      "code": "144",
      "codeHuyen": "144",
      "codeTinh": "BTR",
      "fullName": "Thành phố Bến Tre, Bến Tre",
      "geometry": {
        "location": {
          "lat": 10.2406384,
          "lon": 106.3762991
        },
        "viewport": {
          "northeast": {
            "lat": 10.2911898,
            "lon": 106.4344679
          },
          "southwest": {
            "lat": 10.1900871,
            "lon": 106.3181304
          }
        }
      },
      "ggMatched": true,
      "gg_formatted_address": "tp. Bến Tre, Bến Tre, Vietnam",
      "huyen": "Bến Tre",
      "huyenKhongDau": "ben-tre",
      "id": "Place_H_144",
      "nameKhongDau": "ben-tre",
      "parentId": "Place_T_BTR",
      "placeName": "Bến Tre",
      "placeType": "H",
      "pre": "Thành phố",
      "tinh": "Bến Tre",
      "tinhKhongDau": "ben-tre",
      "type": "Place"
    }
  },
  {
    "default": {
      "code": "145",
      "codeHuyen": "145",
      "codeTinh": "BDD",
      "fullName": "Huyện An Lão, Bình Định",
      "geometry": {
        "location": {
          "lat": 14.5338105,
          "lon": 108.7855305
        },
        "viewport": {
          "northeast": {
            "lat": 14.703603,
            "lon": 108.973735
          },
          "southwest": {
            "lat": 14.364018,
            "lon": 108.597326
          }
        }
      },
      "ggMatched": true,
      "gg_formatted_address": "An Lão District, Binh Dinh Province, Vietnam",
      "huyen": "An Lão",
      "huyenKhongDau": "an-lao",
      "id": "Place_H_145",
      "nameKhongDau": "an-lao",
      "parentId": "Place_T_BDD",
      "placeName": "An Lão",
      "placeType": "H",
      "pre": "Huyện",
      "tinh": "Bình Định",
      "tinhKhongDau": "binh-dinh",
      "type": "Place"
    }
  },
  {
    "default": {
      "code": "146",
      "codeHuyen": "146",
      "codeTinh": "BDD",
      "fullName": "Huyện An Nhơn, Bình Định",
      "geometry": {
        "location": {
          "lat": 13.8582359,
          "lon": 109.069018
        },
        "viewport": {
          "northeast": {
            "lat": 13.9634949,
            "lon": 109.1882599
          },
          "southwest": {
            "lat": 13.7529769,
            "lon": 108.949776
          }
        }
      },
      "ggMatched": true,
      "gg_formatted_address": "An Nhơn, Bình Định, Vietnam",
      "huyen": "An Nhơn",
      "huyenKhongDau": "an-nhon",
      "id": "Place_H_146",
      "nameKhongDau": "an-nhon",
      "parentId": "Place_T_BDD",
      "placeName": "An Nhơn",
      "placeType": "H",
      "pre": "Huyện",
      "tinh": "Bình Định",
      "tinhKhongDau": "binh-dinh",
      "type": "Place"
    }
  },
  {
    "default": {
      "code": "147",
      "codeHuyen": "147",
      "codeTinh": "BDD",
      "fullName": "Huyện Hoài Ân, Bình Định",
      "geometry": {
        "location": {
          "lat": 14.3462319,
          "lon": 108.902979
        },
        "viewport": {
          "northeast": {
            "lat": 14.5499109,
            "lon": 109.031973
          },
          "southwest": {
            "lat": 14.1425529,
            "lon": 108.773985
          }
        }
      },
      "ggMatched": true,
      "gg_formatted_address": "Hoài Ân District, Binh Dinh Province, Vietnam",
      "huyen": "Hoài Ân",
      "huyenKhongDau": "hoai-an",
      "id": "Place_H_147",
      "nameKhongDau": "hoai-an",
      "parentId": "Place_T_BDD",
      "placeName": "Hoài Ân",
      "placeType": "H",
      "pre": "Huyện",
      "tinh": "Bình Định",
      "tinhKhongDau": "binh-dinh",
      "type": "Place"
    }
  },
  {
    "default": {
      "code": "148",
      "codeHuyen": "148",
      "codeTinh": "BDD",
      "fullName": "Huyện Hoài Nhơn, Bình Định",
      "geometry": {
        "location": {
          "lat": 14.5145049,
          "lon": 109.0327196
        },
        "viewport": {
          "northeast": {
            "lat": 14.6741919,
            "lon": 109.1268322
          },
          "southwest": {
            "lat": 14.3548179,
            "lon": 108.938607
          }
        }
      },
      "ggMatched": true,
      "gg_formatted_address": "Hoài Nhơn District, Binh Dinh Province, Vietnam",
      "huyen": "Hoài Nhơn",
      "huyenKhongDau": "hoai-nhon",
      "id": "Place_H_148",
      "nameKhongDau": "hoai-nhon",
      "parentId": "Place_T_BDD",
      "placeName": "Hoài Nhơn",
      "placeType": "H",
      "pre": "Huyện",
      "tinh": "Bình Định",
      "tinhKhongDau": "binh-dinh",
      "type": "Place"
    }
  },
  {
    "default": {
      "code": "149",
      "codeHuyen": "149",
      "codeTinh": "BDD",
      "fullName": "Huyện Phù Cát, Bình Định",
      "geometry": {
        "location": {
          "lat": 14.0616964,
          "lon": 109.066608
        },
        "viewport": {
          "northeast": {
            "lat": 14.2221779,
            "lon": 109.265785
          },
          "southwest": {
            "lat": 13.901215,
            "lon": 108.867431
          }
        }
      },
      "ggMatched": true,
      "gg_formatted_address": "Phù Cát District, Binh Dinh Province, Vietnam",
      "huyen": "Phù Cát",
      "huyenKhongDau": "phu-cat",
      "id": "Place_H_149",
      "nameKhongDau": "phu-cat",
      "parentId": "Place_T_BDD",
      "placeName": "Phù Cát",
      "placeType": "H",
      "pre": "Huyện",
      "tinh": "Bình Định",
      "tinhKhongDau": "binh-dinh",
      "type": "Place"
    }
  },
  {
    "default": {
      "code": "15",
      "codeHuyen": "15",
      "codeTinh": "HN",
      "fullName": "Quận Hà Đông, Hà Nội",
      "geometry": {
        "location": {
          "lat": 20.953015,
          "lon": 105.7523279
        },
        "viewport": {
          "northeast": {
            "lat": 20.996087,
            "lon": 105.798773
          },
          "southwest": {
            "lat": 20.9099431,
            "lon": 105.7058829
          }
        }
      },
      "ggMatched": true,
      "gg_formatted_address": "Hà Đông, Hanoi, Vietnam",
      "huyen": "Hà Đông",
      "huyenKhongDau": "ha-dong",
      "id": "Place_H_15",
      "nameKhongDau": "ha-dong",
      "parentId": "Place_T_HN",
      "placeName": "Hà Đông",
      "placeType": "H",
      "pre": "Quận",
      "tinh": "Hà Nội",
      "tinhKhongDau": "ha-noi",
      "type": "Place"
    }
  },
  {
    "default": {
      "code": "150",
      "codeHuyen": "150",
      "codeTinh": "BDD",
      "fullName": "Huyện Phù Mỹ, Bình Định",
      "geometry": {
        "location": {
          "lat": 14.244288,
          "lon": 109.095792
        },
        "viewport": {
          "northeast": {
            "lat": 14.4068389,
            "lon": 109.227343
          },
          "southwest": {
            "lat": 14.081737,
            "lon": 108.964241
          }
        }
      },
      "ggMatched": true,
      "gg_formatted_address": "Phù Mỹ District, Binh Dinh Province, Vietnam",
      "huyen": "Phù Mỹ",
      "huyenKhongDau": "phu-my",
      "id": "Place_H_150",
      "nameKhongDau": "phu-my",
      "parentId": "Place_T_BDD",
      "placeName": "Phù Mỹ",
      "placeType": "H",
      "pre": "Huyện",
      "tinh": "Bình Định",
      "tinhKhongDau": "binh-dinh",
      "type": "Place"
    }
  },
  {
    "default": {
      "code": "151",
      "codeHuyen": "151",
      "codeTinh": "BDD",
      "fullName": "Huyện Tây Sơn, Bình Định",
      "geometry": {
        "location": {
          "lat": 13.947275,
          "lon": 108.8870324
        },
        "viewport": {
          "northeast": {
            "lat": 14.1343989,
            "lon": 109.0299029
          },
          "southwest": {
            "lat": 13.760151,
            "lon": 108.7441619
          }
        }
      },
      "ggMatched": true,
      "gg_formatted_address": "Tây Sơn District, Binh Dinh Province, Vietnam",
      "huyen": "Tây Sơn",
      "huyenKhongDau": "tay-son",
      "id": "Place_H_151",
      "nameKhongDau": "tay-son",
      "parentId": "Place_T_BDD",
      "placeName": "Tây Sơn",
      "placeType": "H",
      "pre": "Huyện",
      "tinh": "Bình Định",
      "tinhKhongDau": "binh-dinh",
      "type": "Place"
    }
  },
  {
    "default": {
      "code": "152",
      "codeHuyen": "152",
      "codeTinh": "BDD",
      "fullName": "Huyện Tuy Phước, Bình Định",
      "geometry": {
        "location": {
          "lat": 13.8410655,
          "lon": 109.1570655
        },
        "viewport": {
          "northeast": {
            "lat": 13.938224,
            "lon": 109.259596
          },
          "southwest": {
            "lat": 13.7439069,
            "lon": 109.0545349
          }
        }
      },
      "ggMatched": true,
      "gg_formatted_address": "Tuy Phước District, Binh Dinh Province, Vietnam",
      "huyen": "Tuy Phước",
      "huyenKhongDau": "tuy-phuoc",
      "id": "Place_H_152",
      "nameKhongDau": "tuy-phuoc",
      "parentId": "Place_T_BDD",
      "placeName": "Tuy Phước",
      "placeType": "H",
      "pre": "Huyện",
      "tinh": "Bình Định",
      "tinhKhongDau": "binh-dinh",
      "type": "Place"
    }
  },
  {
    "default": {
      "code": "153",
      "codeHuyen": "153",
      "codeTinh": "BDD",
      "fullName": "Huyện Vân Canh, Bình Định",
      "geometry": {
        "location": {
          "lat": 13.6702404,
          "lon": 108.9587829
        },
        "viewport": {
          "northeast": {
            "lat": 13.8374489,
            "lon": 109.118013
          },
          "southwest": {
            "lat": 13.503032,
            "lon": 108.7995529
          }
        }
      },
      "ggMatched": true,
      "gg_formatted_address": "Vân Canh District, Binh Dinh Province, Vietnam",
      "huyen": "Vân Canh",
      "huyenKhongDau": "van-canh",
      "id": "Place_H_153",
      "nameKhongDau": "van-canh",
      "parentId": "Place_T_BDD",
      "placeName": "Vân Canh",
      "placeType": "H",
      "pre": "Huyện",
      "tinh": "Bình Định",
      "tinhKhongDau": "binh-dinh",
      "type": "Place"
    }
  },
  {
    "default": {
      "code": "154",
      "codeHuyen": "154",
      "codeTinh": "BDD",
      "fullName": "Huyện Vĩnh Thạnh, Bình Định",
      "geometry": {
        "location": {
          "lat": 14.2514704,
          "lon": 108.7365459
        },
        "viewport": {
          "northeast": {
            "lat": 14.4896719,
            "lon": 108.875363
          },
          "southwest": {
            "lat": 14.013269,
            "lon": 108.5977289
          }
        }
      },
      "ggMatched": true,
      "gg_formatted_address": "Vĩnh Thạnh, Bình Định, Vietnam",
      "huyen": "Vĩnh Thạnh",
      "huyenKhongDau": "vinh-thanh",
      "id": "Place_H_154",
      "nameKhongDau": "vinh-thanh",
      "parentId": "Place_T_BDD",
      "placeName": "Vĩnh Thạnh",
      "placeType": "H",
      "pre": "Huyện",
      "tinh": "Bình Định",
      "tinhKhongDau": "binh-dinh",
      "type": "Place"
    }
  },
  {
    "default": {
      "code": "155",
      "codeHuyen": "155",
      "codeTinh": "BDD",
      "fullName": "Thành phố Quy Nhơn, Bình Định",
      "geometry": {
        "location": {
          "lat": 13.7849184,
          "lon": 109.2162625
        },
        "viewport": {
          "northeast": {
            "lat": 13.8999929,
            "lon": 109.3000062
          },
          "southwest": {
            "lat": 13.6698438,
            "lon": 109.1325187
          }
        }
      },
      "ggMatched": true,
      "gg_formatted_address": "Qui Nhơn, Binh Dinh Province, Vietnam",
      "huyen": "Quy Nhơn",
      "huyenKhongDau": "quy-nhon",
      "id": "Place_H_155",
      "nameKhongDau": "quy-nhon",
      "parentId": "Place_T_BDD",
      "placeName": "Quy Nhơn",
      "placeType": "H",
      "pre": "Thành phố",
      "tinh": "Bình Định",
      "tinhKhongDau": "binh-dinh",
      "type": "Place"
    }
  },
  {
    "default": {
      "code": "156",
      "codeHuyen": "156",
      "codeTinh": "BD",
      "fullName": "Huyện Bến Cát, Bình Dương",
      "geometry": {
        "location": {
          "lat": 11.2110745,
          "lon": 106.6120335
        },
        "viewport": {
          "northeast": {
            "lat": 11.388015,
            "lon": 106.721433
          },
          "southwest": {
            "lat": 11.034134,
            "lon": 106.502634
          }
        }
      },
      "ggMatched": true,
      "gg_formatted_address": "Bến Cát, Binh Duong, Vietnam",
      "huyen": "Bến Cát",
      "huyenKhongDau": "ben-cat",
      "id": "Place_H_156",
      "nameKhongDau": "ben-cat",
      "parentId": "Place_T_BD",
      "placeName": "Bến Cát",
      "placeType": "H",
      "pre": "Huyện",
      "tinh": "Bình Dương",
      "tinhKhongDau": "binh-duong",
      "type": "Place"
    }
  },
  {
    "default": {
      "code": "157",
      "codeHuyen": "157",
      "codeTinh": "BD",
      "fullName": "Huyện Dầu Tiếng, Bình Dương",
      "geometry": {
        "location": {
          "lat": 11.3188878,
          "lon": 106.455947
        },
        "viewport": {
          "northeast": {
            "lat": 11.5013477,
            "lon": 106.5764449
          },
          "southwest": {
            "lat": 11.1364279,
            "lon": 106.3354492
          }
        }
      },
      "ggMatched": true,
      "gg_formatted_address": "Dầu Tiếng, Bình Dương, Vietnam",
      "huyen": "Dầu Tiếng",
      "huyenKhongDau": "dau-tieng",
      "id": "Place_H_157",
      "nameKhongDau": "dau-tieng",
      "parentId": "Place_T_BD",
      "placeName": "Dầu Tiếng",
      "placeType": "H",
      "pre": "Huyện",
      "tinh": "Bình Dương",
      "tinhKhongDau": "binh-duong",
      "type": "Place"
    }
  },
  {
    "default": {
      "code": "158",
      "codeHuyen": "158",
      "codeTinh": "BD",
      "fullName": "Huyện Dĩ An, Bình Dương",
      "geometry": {
        "location": {
          "lat": 10.9189362,
          "lon": 106.7872238
        },
        "viewport": {
          "northeast": {
            "lat": 10.9703901,
            "lon": 106.8379783
          },
          "southwest": {
            "lat": 10.8674823,
            "lon": 106.7364692
          }
        }
      },
      "ggMatched": true,
      "gg_formatted_address": "Di An, Bình Dương, Vietnam",
      "huyen": "Dĩ An",
      "huyenKhongDau": "di-an",
      "id": "Place_H_158",
      "nameKhongDau": "di-an",
      "parentId": "Place_T_BD",
      "placeName": "Dĩ An",
      "placeType": "H",
      "pre": "Huyện",
      "tinh": "Bình Dương",
      "tinhKhongDau": "binh-duong",
      "type": "Place"
    }
  },
  {
    "default": {
      "code": "159",
      "codeHuyen": "159",
      "codeTinh": "BD",
      "fullName": "Huyện Phú Giáo, Bình Dương",
      "geometry": {
        "location": {
          "lat": 11.3395725,
          "lon": 106.7981134
        },
        "viewport": {
          "northeast": {
            "lat": 11.491599,
            "lon": 106.9524309
          },
          "southwest": {
            "lat": 11.1875459,
            "lon": 106.6437959
          }
        }
      },
      "ggMatched": true,
      "gg_formatted_address": "Phú Giáo District, Binh Duong, Vietnam",
      "huyen": "Phú Giáo",
      "huyenKhongDau": "phu-giao",
      "id": "Place_H_159",
      "nameKhongDau": "phu-giao",
      "parentId": "Place_T_BD",
      "placeName": "Phú Giáo",
      "placeType": "H",
      "pre": "Huyện",
      "tinh": "Bình Dương",
      "tinhKhongDau": "binh-duong",
      "type": "Place"
    }
  },
  {
    "default": {
      "code": "16",
      "codeHuyen": "16",
      "codeTinh": "HN",
      "fullName": "Thị xã Sơn Tây, Hà Nội",
      "geometry": {
        "location": {
          "lat": 21.0966128,
          "lon": 105.4763031
        },
        "viewport": {
          "northeast": {
            "lat": 21.1727669,
            "lon": 105.5379295
          },
          "southwest": {
            "lat": 21.0204588,
            "lon": 105.4146766
          }
        }
      },
      "ggMatched": true,
      "gg_formatted_address": "tx. Sơn Tây, Hà Nội, Vietnam",
      "huyen": "Sơn Tây",
      "huyenKhongDau": "son-tay",
      "id": "Place_H_16",
      "nameKhongDau": "son-tay",
      "parentId": "Place_T_HN",
      "placeName": "Sơn Tây",
      "placeType": "H",
      "pre": "Thị xã",
      "tinh": "Hà Nội",
      "tinhKhongDau": "ha-noi",
      "type": "Place"
    }
  },
  {
    "default": {
      "code": "160",
      "codeHuyen": "160",
      "codeTinh": "BD",
      "fullName": "Huyện Tân Uyên, Bình Dương",
      "geometry": {
        "location": {
          "lat": 11.1073529,
          "lon": 106.8193964
        },
        "viewport": {
          "northeast": {
            "lat": 11.255487,
            "lon": 106.966831
          },
          "southwest": {
            "lat": 10.9592189,
            "lon": 106.6719618
          }
        }
      },
      "ggMatched": true,
      "gg_formatted_address": "Tân Uyên District, Binh Duong, Vietnam",
      "huyen": "Tân Uyên",
      "huyenKhongDau": "tan-uyen",
      "id": "Place_H_160",
      "nameKhongDau": "tan-uyen",
      "parentId": "Place_T_BD",
      "placeName": "Tân Uyên",
      "placeType": "H",
      "pre": "Huyện",
      "tinh": "Bình Dương",
      "tinhKhongDau": "binh-duong",
      "type": "Place"
    }
  },
  {
    "default": {
      "code": "161",
      "codeHuyen": "161",
      "codeTinh": "BD",
      "fullName": "Huyện Thuận An, Bình Dương",
      "geometry": {
        "location": {
          "lat": 10.9321254,
          "lon": 106.7021193
        },
        "viewport": {
          "northeast": {
            "lat": 10.9975069,
            "lon": 106.7533489
          },
          "southwest": {
            "lat": 10.8667439,
            "lon": 106.6508897
          }
        }
      },
      "ggMatched": true,
      "gg_formatted_address": "Thuận An, Bình Dương, Vietnam",
      "huyen": "Thuận An",
      "huyenKhongDau": "thuan-an",
      "id": "Place_H_161",
      "nameKhongDau": "thuan-an",
      "parentId": "Place_T_BD",
      "placeName": "Thuận An",
      "placeType": "H",
      "pre": "Huyện",
      "tinh": "Bình Dương",
      "tinhKhongDau": "binh-duong",
      "type": "Place"
    }
  },
  {
    "default": {
      "code": "163",
      "codeHuyen": "163",
      "codeTinh": "BD",
      "fullName": "Thị xã Thủ Dầu Một, Bình Dương",
      "geometry": {
        "location": {
          "lat": 10.9992959,
          "lon": 106.6515234
        },
        "viewport": {
          "northeast": {
            "lat": 11.0589009,
            "lon": 106.707209
          },
          "southwest": {
            "lat": 10.9396909,
            "lon": 106.5958378
          }
        }
      },
      "ggMatched": true,
      "gg_formatted_address": "TX. Thủ Dầu Một, Bình Dương, Vietnam",
      "huyen": "Thủ Dầu Một",
      "huyenKhongDau": "thu-dau-mot",
      "id": "Place_H_163",
      "nameKhongDau": "thu-dau-mot",
      "parentId": "Place_T_BD",
      "placeName": "Thủ Dầu Một",
      "placeType": "H",
      "pre": "Thị xã",
      "tinh": "Bình Dương",
      "tinhKhongDau": "binh-duong",
      "type": "Place"
    }
  },
  {
    "default": {
      "code": "164",
      "codeHuyen": "164",
      "codeTinh": "BP",
      "fullName": "Thị xã Bình Long, Bình Phước",
      "geometry": {
        "location": {
          "lat": 11.6724022,
          "lon": 106.5715563
        },
        "viewport": {
          "northeast": {
            "lat": 11.7403192,
            "lon": 106.6472054
          },
          "southwest": {
            "lat": 11.6044852,
            "lon": 106.4959072
          }
        }
      },
      "ggMatched": true,
      "gg_formatted_address": "tx. Bình Long, Bình Phước, Vietnam",
      "huyen": "Bình Long",
      "huyenKhongDau": "binh-long",
      "id": "Place_H_164",
      "nameKhongDau": "binh-long",
      "parentId": "Place_T_BP",
      "placeName": "Bình Long",
      "placeType": "H",
      "pre": "Thị xã",
      "tinh": "Bình Phước",
      "tinhKhongDau": "binh-phuoc",
      "type": "Place"
    }
  },
  {
    "default": {
      "code": "165",
      "codeHuyen": "165",
      "codeTinh": "BP",
      "fullName": "Huyện Bù Đăng, Bình Phước",
      "geometry": {
        "location": {
          "lat": 11.7699655,
          "lon": 107.238861
        },
        "viewport": {
          "northeast": {
            "lat": 12.038884,
            "lon": 107.426986
          },
          "southwest": {
            "lat": 11.501047,
            "lon": 107.050736
          }
        }
      },
      "ggMatched": true,
      "gg_formatted_address": "Bù Đăng District, Binh Phuoc, Vietnam",
      "huyen": "Bù Đăng",
      "huyenKhongDau": "bu-dang",
      "id": "Place_H_165",
      "nameKhongDau": "bu-dang",
      "parentId": "Place_T_BP",
      "placeName": "Bù Đăng",
      "placeType": "H",
      "pre": "Huyện",
      "tinh": "Bình Phước",
      "tinhKhongDau": "binh-phuoc",
      "type": "Place"
    }
  },
  {
    "default": {
      "code": "166",
      "codeHuyen": "166",
      "codeTinh": "BP",
      "fullName": "Huyện Bù Đốp, Bình Phước",
      "geometry": {
        "location": {
          "lat": 11.9865487,
          "lon": 106.8321055
        },
        "viewport": {
          "northeast": {
            "lat": 12.0936649,
            "lon": 106.994296
          },
          "southwest": {
            "lat": 11.8794325,
            "lon": 106.669915
          }
        }
      },
      "ggMatched": true,
      "gg_formatted_address": "Bù Đốp, Bình Phước, Vietnam",
      "huyen": "Bù Đốp",
      "huyenKhongDau": "bu-dop",
      "id": "Place_H_166",
      "nameKhongDau": "bu-dop",
      "parentId": "Place_T_BP",
      "placeName": "Bù Đốp",
      "placeType": "H",
      "pre": "Huyện",
      "tinh": "Bình Phước",
      "tinhKhongDau": "binh-phuoc",
      "type": "Place"
    }
  },
  {
    "default": {
      "code": "167",
      "codeHuyen": "167",
      "codeTinh": "BP",
      "fullName": "Huyện Chơn Thành, Bình Phước",
      "geometry": {
        "location": {
          "lat": 11.4798435,
          "lon": 106.6579269
        },
        "viewport": {
          "northeast": {
            "lat": 11.6058769,
            "lon": 106.776545
          },
          "southwest": {
            "lat": 11.35381,
            "lon": 106.5393089
          }
        }
      },
      "ggMatched": true,
      "gg_formatted_address": "Chơn Thành District, Binh Phuoc, Vietnam",
      "huyen": "Chơn Thành",
      "huyenKhongDau": "chon-thanh",
      "id": "Place_H_167",
      "nameKhongDau": "chon-thanh",
      "parentId": "Place_T_BP",
      "placeName": "Chơn Thành",
      "placeType": "H",
      "pre": "Huyện",
      "tinh": "Bình Phước",
      "tinhKhongDau": "binh-phuoc",
      "type": "Place"
    }
  },
  {
    "default": {
      "code": "168",
      "codeHuyen": "168",
      "codeTinh": "BP",
      "fullName": "Huyện Đồng Phú, Bình Phước",
      "geometry": {
        "location": {
          "lat": 11.4800135,
          "lon": 106.9538355
        },
        "viewport": {
          "northeast": {
            "lat": 11.658894,
            "lon": 107.143816
          },
          "southwest": {
            "lat": 11.301133,
            "lon": 106.763855
          }
        }
      },
      "ggMatched": true,
      "gg_formatted_address": "Đồng Phú, Bình Phước, Vietnam",
      "huyen": "Đồng Phú",
      "huyenKhongDau": "dong-phu",
      "id": "Place_H_168",
      "nameKhongDau": "dong-phu",
      "parentId": "Place_T_BP",
      "placeName": "Đồng Phú",
      "placeType": "H",
      "pre": "Huyện",
      "tinh": "Bình Phước",
      "tinhKhongDau": "binh-phuoc",
      "type": "Place"
    }
  },
  {
    "default": {
      "code": "169",
      "codeHuyen": "169",
      "codeTinh": "BP",
      "fullName": "Huyện Lộc Ninh, Bình Phước",
      "geometry": {
        "location": {
          "lat": 11.8227825,
          "lon": 106.5858094
        },
        "viewport": {
          "northeast": {
            "lat": 11.988678,
            "lon": 106.7607619
          },
          "southwest": {
            "lat": 11.6568869,
            "lon": 106.4108568
          }
        }
      },
      "ggMatched": true,
      "gg_formatted_address": "Lộc Ninh, Bình Phước, Vietnam",
      "huyen": "Lộc Ninh",
      "huyenKhongDau": "loc-ninh",
      "id": "Place_H_169",
      "nameKhongDau": "loc-ninh",
      "parentId": "Place_T_BP",
      "placeName": "Lộc Ninh",
      "placeType": "H",
      "pre": "Huyện",
      "tinh": "Bình Phước",
      "tinhKhongDau": "binh-phuoc",
      "type": "Place"
    }
  },
  {
    "default": {
      "code": "17",
      "codeHuyen": "17",
      "codeTinh": "HN",
      "fullName": "Huyện Mê Linh, Hà Nội",
      "geometry": {
        "location": {
          "lat": 21.1808185,
          "lon": 105.7031799
        },
        "viewport": {
          "northeast": {
            "lat": 21.23979,
            "lon": 105.7921009
          },
          "southwest": {
            "lat": 21.1218469,
            "lon": 105.6142589
          }
        }
      },
      "ggMatched": true,
      "gg_formatted_address": "Mê Linh, Hanoi, Vietnam",
      "huyen": "Mê Linh",
      "huyenKhongDau": "me-linh",
      "id": "Place_H_17",
      "nameKhongDau": "me-linh",
      "parentId": "Place_T_HN",
      "placeName": "Mê Linh",
      "placeType": "H",
      "pre": "Huyện",
      "tinh": "Hà Nội",
      "tinhKhongDau": "ha-noi",
      "type": "Place"
    }
  },
  {
    "default": {
      "code": "170",
      "codeHuyen": "170",
      "codeTinh": "BP",
      "fullName": "Thị xã Phước Long, Bình Phước",
      "geometry": {
        "location": {
          "lat": 11.8276129,
          "lon": 107.0030325
        },
        "viewport": {
          "northeast": {
            "lat": 11.879278,
            "lon": 107.0794809
          },
          "southwest": {
            "lat": 11.7759478,
            "lon": 106.9265841
          }
        }
      },
      "ggMatched": true,
      "gg_formatted_address": "tx. Phước Long, Bình Phước, Vietnam",
      "huyen": "Phước Long",
      "huyenKhongDau": "phuoc-long",
      "id": "Place_H_170",
      "nameKhongDau": "phuoc-long",
      "parentId": "Place_T_BP",
      "placeName": "Phước Long",
      "placeType": "H",
      "pre": "Thị xã",
      "tinh": "Bình Phước",
      "tinhKhongDau": "binh-phuoc",
      "type": "Place"
    }
  },
  {
    "default": {
      "code": "171",
      "codeHuyen": "171",
      "codeTinh": "BP",
      "fullName": "Thị xã Đồng Xoài, Bình Phước",
      "geometry": {
        "location": {
          "lat": 11.5184974,
          "lon": 106.8444443
        },
        "viewport": {
          "northeast": {
            "lat": 11.5789247,
            "lon": 106.9337082
          },
          "southwest": {
            "lat": 11.4580702,
            "lon": 106.7551803
          }
        }
      },
      "ggMatched": true,
      "gg_formatted_address": "tx. Đồng Xoài, Bình Phước, Vietnam",
      "huyen": "Đồng Xoài",
      "huyenKhongDau": "dong-xoai",
      "id": "Place_H_171",
      "nameKhongDau": "dong-xoai",
      "parentId": "Place_T_BP",
      "placeName": "Đồng Xoài",
      "placeType": "H",
      "pre": "Thị xã",
      "tinh": "Bình Phước",
      "tinhKhongDau": "binh-phuoc",
      "type": "Place"
    }
  },
  {
    "default": {
      "code": "172",
      "codeHuyen": "172",
      "codeTinh": "BTH",
      "fullName": "Huyện Bắc Bình, Bình Thuận  ",
      "geometry": {
        "location": {
          "lat": 11.2634989,
          "lon": 108.3611789
        },
        "viewport": {
          "northeast": {
            "lat": 11.5313509,
            "lon": 108.6165389
          },
          "southwest": {
            "lat": 10.995647,
            "lon": 108.1058189
          }
        }
      },
      "ggMatched": true,
      "gg_formatted_address": "Bắc Bình District, Binh Thuan, Vietnam",
      "huyen": "Bắc Bình",
      "huyenKhongDau": "bac-binh",
      "id": "Place_H_172",
      "nameKhongDau": "bac-binh",
      "parentId": "Place_T_BTH",
      "placeName": "Bắc Bình",
      "placeType": "H",
      "pre": "Huyện",
      "tinh": "Bình Thuận  ",
      "tinhKhongDau": "binh-thuan",
      "type": "Place"
    }
  },
  {
    "default": {
      "code": "173",
      "codeHuyen": "173",
      "codeTinh": "BTH",
      "fullName": "Huyện Đảo Phú Quý, Bình Thuận  ",
      "geometry": {
        "location": {
          "lat": 10.8976128,
          "lon": 108.1721334
        },
        "viewport": {
          "northeast": {
            "lat": 11.0238032,
            "lon": 108.3538241
          },
          "southwest": {
            "lat": 10.7714223,
            "lon": 107.9904427
          }
        }
      },
      "ggMatched": true,
      "gg_formatted_address": "Phan Thiet, Binh Thuan, Vietnam",
      "huyen": "Đảo Phú Quý",
      "huyenKhongDau": "dao-phu-quy",
      "id": "Place_H_173",
      "nameKhongDau": "dao-phu-quy",
      "parentId": "Place_T_BTH",
      "placeName": "Đảo Phú Quý",
      "placeType": "H",
      "pre": "Huyện",
      "tinh": "Bình Thuận  ",
      "tinhKhongDau": "binh-thuan",
      "type": "Place"
    }
  },
  {
    "default": {
      "code": "174",
      "codeHuyen": "174",
      "codeTinh": "BTH",
      "fullName": "Huyện Đức Linh, Bình Thuận  ",
      "geometry": {
        "location": {
          "lat": 11.1944799,
          "lon": 107.5286693
        },
        "viewport": {
          "northeast": {
            "lat": 11.3824579,
            "lon": 107.6627569
          },
          "southwest": {
            "lat": 11.0065019,
            "lon": 107.3945817
          }
        }
      },
      "ggMatched": true,
      "gg_formatted_address": "Đức Linh District, Binh Thuan, Vietnam",
      "huyen": "Đức Linh",
      "huyenKhongDau": "duc-linh",
      "id": "Place_H_174",
      "nameKhongDau": "duc-linh",
      "parentId": "Place_T_BTH",
      "placeName": "Đức Linh",
      "placeType": "H",
      "pre": "Huyện",
      "tinh": "Bình Thuận  ",
      "tinhKhongDau": "binh-thuan",
      "type": "Place"
    }
  },
  {
    "default": {
      "code": "175",
      "codeHuyen": "175",
      "codeTinh": "BTH",
      "fullName": "Huyện Hàm Tân, Bình Thuận  ",
      "geometry": {
        "location": {
          "lat": 10.7456194,
          "lon": 107.6487794
        },
        "viewport": {
          "northeast": {
            "lat": 10.916575,
            "lon": 107.7943009
          },
          "southwest": {
            "lat": 10.5746639,
            "lon": 107.5032579
          }
        }
      },
      "ggMatched": true,
      "gg_formatted_address": "Hàm Tân District, Binh Thuan, Vietnam",
      "huyen": "Hàm Tân",
      "huyenKhongDau": "ham-tan",
      "id": "Place_H_175",
      "nameKhongDau": "ham-tan",
      "parentId": "Place_T_BTH",
      "placeName": "Hàm Tân",
      "placeType": "H",
      "pre": "Huyện",
      "tinh": "Bình Thuận  ",
      "tinhKhongDau": "binh-thuan",
      "type": "Place"
    }
  },
  {
    "default": {
      "code": "176",
      "codeHuyen": "176",
      "codeTinh": "BTH",
      "fullName": "Huyện Hàm Thuận Bắc, Bình Thuận  ",
      "geometry": {
        "location": {
          "lat": 11.154841,
          "lon": 108.053962
        },
        "viewport": {
          "northeast": {
            "lat": 11.3694109,
            "lon": 108.306564
          },
          "southwest": {
            "lat": 10.940271,
            "lon": 107.80136
          }
        }
      },
      "ggMatched": true,
      "gg_formatted_address": "Hàm Thuận Bắc District, Binh Thuan, Vietnam",
      "huyen": "Hàm Thuận Bắc",
      "huyenKhongDau": "ham-thuan-bac",
      "id": "Place_H_176",
      "nameKhongDau": "ham-thuan-bac",
      "parentId": "Place_T_BTH",
      "placeName": "Hàm Thuận Bắc",
      "placeType": "H",
      "pre": "Huyện",
      "tinh": "Bình Thuận  ",
      "tinhKhongDau": "binh-thuan",
      "type": "Place"
    }
  },
  {
    "default": {
      "code": "177",
      "codeHuyen": "177",
      "codeTinh": "BTH",
      "fullName": "Huyện Hàm Thuận Nam, Bình Thuận  ",
      "geometry": {
        "location": {
          "lat": 10.9379495,
          "lon": 107.9118179
        },
        "viewport": {
          "northeast": {
            "lat": 11.1764349,
            "lon": 108.06864
          },
          "southwest": {
            "lat": 10.6994642,
            "lon": 107.7549959
          }
        }
      },
      "ggMatched": true,
      "gg_formatted_address": "Hàm Thuận Nam District, Binh Thuan, Vietnam",
      "huyen": "Hàm Thuận Nam",
      "huyenKhongDau": "ham-thuan-nam",
      "id": "Place_H_177",
      "nameKhongDau": "ham-thuan-nam",
      "parentId": "Place_T_BTH",
      "placeName": "Hàm Thuận Nam",
      "placeType": "H",
      "pre": "Huyện",
      "tinh": "Bình Thuận  ",
      "tinhKhongDau": "binh-thuan",
      "type": "Place"
    }
  },
  {
    "default": {
      "code": "178",
      "codeHuyen": "178",
      "codeTinh": "BTH",
      "fullName": "Huyện Tánh Linh, Bình Thuận  ",
      "geometry": {
        "location": {
          "lat": 11.1383314,
          "lon": 107.6890969
        },
        "viewport": {
          "northeast": {
            "lat": 11.3715119,
            "lon": 107.8711239
          },
          "southwest": {
            "lat": 10.9051509,
            "lon": 107.5070699
          }
        }
      },
      "ggMatched": true,
      "gg_formatted_address": "Tánh Linh District, Binh Thuan, Vietnam",
      "huyen": "Tánh Linh",
      "huyenKhongDau": "tanh-linh",
      "id": "Place_H_178",
      "nameKhongDau": "tanh-linh",
      "parentId": "Place_T_BTH",
      "placeName": "Tánh Linh",
      "placeType": "H",
      "pre": "Huyện",
      "tinh": "Bình Thuận  ",
      "tinhKhongDau": "binh-thuan",
      "type": "Place"
    }
  },
  {
    "default": {
      "code": "179",
      "codeHuyen": "179",
      "codeTinh": "BTH",
      "fullName": "Huyện Tuy Phong, Bình Thuận  ",
      "geometry": {
        "location": {
          "lat": 11.3409712,
          "lon": 108.6882025
        },
        "viewport": {
          "northeast": {
            "lat": 11.555304,
            "lon": 108.8761269
          },
          "southwest": {
            "lat": 11.1266384,
            "lon": 108.500278
          }
        }
      },
      "ggMatched": true,
      "gg_formatted_address": "Tuy Phong District, Binh Thuan, Vietnam",
      "huyen": "Tuy Phong",
      "huyenKhongDau": "tuy-phong",
      "id": "Place_H_179",
      "nameKhongDau": "tuy-phong",
      "parentId": "Place_T_BTH",
      "placeName": "Tuy Phong",
      "placeType": "H",
      "pre": "Huyện",
      "tinh": "Bình Thuận  ",
      "tinhKhongDau": "binh-thuan",
      "type": "Place"
    }
  },
  {
    "default": {
      "code": "18",
      "codeHuyen": "18",
      "codeTinh": "HN",
      "fullName": "Huyện Ba Vì, Hà Nội",
      "geometry": {
        "location": {
          "lat": 21.1556405,
          "lon": 105.3790389
        },
        "viewport": {
          "northeast": {
            "lat": 21.303778,
            "lon": 105.4726119
          },
          "southwest": {
            "lat": 21.007503,
            "lon": 105.2854659
          }
        }
      },
      "ggMatched": true,
      "gg_formatted_address": "Ba Vì, Hanoi, Vietnam",
      "huyen": "Ba Vì",
      "huyenKhongDau": "ba-vi",
      "id": "Place_H_18",
      "nameKhongDau": "ba-vi",
      "parentId": "Place_T_HN",
      "placeName": "Ba Vì",
      "placeType": "H",
      "pre": "Huyện",
      "tinh": "Hà Nội",
      "tinhKhongDau": "ha-noi",
      "type": "Place"
    }
  },
  {
    "default": {
      "code": "181",
      "codeHuyen": "181",
      "codeTinh": "BTH",
      "fullName": "Thành phố Phan Thiết, Bình Thuận  ",
      "geometry": {
        "location": {
          "lat": 10.8976128,
          "lon": 108.1721334
        },
        "viewport": {
          "northeast": {
            "lat": 11.0238032,
            "lon": 108.3538241
          },
          "southwest": {
            "lat": 10.7714223,
            "lon": 107.9904427
          }
        }
      },
      "ggMatched": true,
      "gg_formatted_address": "Phan Thiet, Binh Thuan, Vietnam",
      "huyen": "Phan Thiết",
      "huyenKhongDau": "phan-thiet",
      "id": "Place_H_181",
      "nameKhongDau": "phan-thiet",
      "parentId": "Place_T_BTH",
      "placeName": "Phan Thiết",
      "placeType": "H",
      "pre": "Thành phố",
      "tinh": "Bình Thuận  ",
      "tinhKhongDau": "binh-thuan",
      "type": "Place"
    }
  },
  {
    "default": {
      "code": "182",
      "codeHuyen": "182",
      "codeTinh": "BTH",
      "fullName": "Thị xã La Gi, Bình Thuận  ",
      "geometry": {
        "location": {
          "lat": 10.7124948,
          "lon": 107.7782814
        },
        "viewport": {
          "northeast": {
            "lat": 10.793482,
            "lon": 107.8769858
          },
          "southwest": {
            "lat": 10.6315077,
            "lon": 107.6795769
          }
        }
      },
      "ggMatched": true,
      "gg_formatted_address": "La Gi, Binh Thuan, Vietnam",
      "huyen": "La Gi",
      "huyenKhongDau": "la-gi",
      "id": "Place_H_182",
      "nameKhongDau": "la-gi",
      "parentId": "Place_T_BTH",
      "placeName": "La Gi",
      "placeType": "H",
      "pre": "Thị xã",
      "tinh": "Bình Thuận  ",
      "tinhKhongDau": "binh-thuan",
      "type": "Place"
    }
  },
  {
    "default": {
      "code": "183",
      "codeHuyen": "183",
      "codeTinh": "CM",
      "fullName": "Huyện Cái Nước, Cà Mau",
      "geometry": {
        "location": {
          "lat": 9.0066569,
          "lon": 105.05785
        },
        "viewport": {
          "northeast": {
            "lat": 9.1620029,
            "lon": 105.157281
          },
          "southwest": {
            "lat": 8.851310999999999,
            "lon": 104.958419
          }
        }
      },
      "ggMatched": true,
      "gg_formatted_address": "Cái Nước District, Ca Mau, Vietnam",
      "huyen": "Cái Nước",
      "huyenKhongDau": "cai-nuoc",
      "id": "Place_H_183",
      "nameKhongDau": "cai-nuoc",
      "parentId": "Place_T_CM",
      "placeName": "Cái Nước",
      "placeType": "H",
      "pre": "Huyện",
      "tinh": "Cà Mau",
      "tinhKhongDau": "ca-mau",
      "type": "Place"
    }
  },
  {
    "default": {
      "code": "184",
      "codeHuyen": "184",
      "codeTinh": "CM",
      "fullName": "Huyện Đầm Dơi, Cà Mau",
      "geometry": {
        "location": {
          "lat": 8.9627025,
          "lon": 105.2331042
        },
        "viewport": {
          "northeast": {
            "lat": 9.101072,
            "lon": 105.4179904
          },
          "southwest": {
            "lat": 8.8243331,
            "lon": 105.0482179
          }
        }
      },
      "ggMatched": true,
      "gg_formatted_address": "Đầm Dơi District, Ca Mau, Vietnam",
      "huyen": "Đầm Dơi",
      "huyenKhongDau": "dam-doi",
      "id": "Place_H_184",
      "nameKhongDau": "dam-doi",
      "parentId": "Place_T_CM",
      "placeName": "Đầm Dơi",
      "placeType": "H",
      "pre": "Huyện",
      "tinh": "Cà Mau",
      "tinhKhongDau": "ca-mau",
      "type": "Place"
    }
  },
  {
    "default": {
      "code": "185",
      "codeHuyen": "185",
      "codeTinh": "CM",
      "fullName": "Huyện Năm Căn, Cà Mau",
      "geometry": {
        "location": {
          "lat": 8.7824462,
          "lon": 105.0640375
        },
        "viewport": {
          "northeast": {
            "lat": 8.871781,
            "lon": 105.310601
          },
          "southwest": {
            "lat": 8.6931113,
            "lon": 104.8174741
          }
        }
      },
      "ggMatched": true,
      "gg_formatted_address": "Năm Căn District, Ca Mau, Vietnam",
      "huyen": "Năm Căn",
      "huyenKhongDau": "nam-can",
      "id": "Place_H_185",
      "nameKhongDau": "nam-can",
      "parentId": "Place_T_CM",
      "placeName": "Năm Căn",
      "placeType": "H",
      "pre": "Huyện",
      "tinh": "Cà Mau",
      "tinhKhongDau": "ca-mau",
      "type": "Place"
    }
  },
  {
    "default": {
      "code": "186",
      "codeHuyen": "186",
      "codeTinh": "CM",
      "fullName": "Huyện Ngọc Hiển, Cà Mau",
      "geometry": {
        "location": {
          "lat": 8.6792887,
          "lon": 104.9641651
        },
        "viewport": {
          "northeast": {
            "lat": 8.7949699,
            "lon": 105.2159168
          },
          "southwest": {
            "lat": 8.5636076,
            "lon": 104.7124134
          }
        }
      },
      "ggMatched": true,
      "gg_formatted_address": "Ngọc Hiển District, Ca Mau, Vietnam",
      "huyen": "Ngọc Hiển",
      "huyenKhongDau": "ngoc-hien",
      "id": "Place_H_186",
      "nameKhongDau": "ngoc-hien",
      "parentId": "Place_T_CM",
      "placeName": "Ngọc Hiển",
      "placeType": "H",
      "pre": "Huyện",
      "tinh": "Cà Mau",
      "tinhKhongDau": "ca-mau",
      "type": "Place"
    }
  },
  {
    "default": {
      "code": "187",
      "codeHuyen": "187",
      "codeTinh": "CM",
      "fullName": "Huyện Phú Tân, Cà Mau",
      "geometry": {
        "location": {
          "lat": 8.8897519,
          "lon": 104.8967993
        },
        "viewport": {
          "northeast": {
            "lat": 9.0071999,
            "lon": 105.0126099
          },
          "southwest": {
            "lat": 8.7723039,
            "lon": 104.7809886
          }
        }
      },
      "ggMatched": true,
      "gg_formatted_address": "Phú Tân District, Ca Mau, Vietnam",
      "huyen": "Phú Tân",
      "huyenKhongDau": "phu-tan",
      "id": "Place_H_187",
      "nameKhongDau": "phu-tan",
      "parentId": "Place_T_CM",
      "placeName": "Phú Tân",
      "placeType": "H",
      "pre": "Huyện",
      "tinh": "Cà Mau",
      "tinhKhongDau": "ca-mau",
      "type": "Place"
    }
  },
  {
    "default": {
      "code": "188",
      "codeHuyen": "188",
      "codeTinh": "CM",
      "fullName": "Huyện Thới Bình, Cà Mau",
      "geometry": {
        "location": {
          "lat": 9.3794285,
          "lon": 105.1274854
        },
        "viewport": {
          "northeast": {
            "lat": 9.558328,
            "lon": 105.2953489
          },
          "southwest": {
            "lat": 9.200529,
            "lon": 104.959622
          }
        }
      },
      "ggMatched": true,
      "gg_formatted_address": "Thới Bình, Ca Mau, Vietnam",
      "huyen": "Thới Bình",
      "huyenKhongDau": "thoi-binh",
      "id": "Place_H_188",
      "nameKhongDau": "thoi-binh",
      "parentId": "Place_T_CM",
      "placeName": "Thới Bình",
      "placeType": "H",
      "pre": "Huyện",
      "tinh": "Cà Mau",
      "tinhKhongDau": "ca-mau",
      "type": "Place"
    }
  },
  {
    "default": {
      "code": "189",
      "codeHuyen": "189",
      "codeTinh": "CM",
      "fullName": "Huyện Trần Văn Thời, Cà Mau",
      "geometry": {
        "location": {
          "lat": 9.1253145,
          "lon": 104.9582564
        },
        "viewport": {
          "northeast": {
            "lat": 9.277053,
            "lon": 105.123463
          },
          "southwest": {
            "lat": 8.973576,
            "lon": 104.7930499
          }
        }
      },
      "ggMatched": true,
      "gg_formatted_address": "Trần Văn Thời District, Ca Mau, Vietnam",
      "huyen": "Trần Văn Thời",
      "huyenKhongDau": "tran-van-thoi",
      "id": "Place_H_189",
      "nameKhongDau": "tran-van-thoi",
      "parentId": "Place_T_CM",
      "placeName": "Trần Văn Thời",
      "placeType": "H",
      "pre": "Huyện",
      "tinh": "Cà Mau",
      "tinhKhongDau": "ca-mau",
      "type": "Place"
    }
  },
  {
    "default": {
      "code": "19",
      "codeHuyen": "19",
      "codeTinh": "HN",
      "fullName": "Huyện Phúc Thọ, Hà Nội",
      "geometry": {
        "location": {
          "lat": 21.1067179,
          "lon": 105.5821165
        },
        "viewport": {
          "northeast": {
            "lat": 21.1733419,
            "lon": 105.6647891
          },
          "southwest": {
            "lat": 21.0400939,
            "lon": 105.499444
          }
        }
      },
      "ggMatched": true,
      "gg_formatted_address": "Phúc Thọ, Hanoi, Vietnam",
      "huyen": "Phúc Thọ",
      "huyenKhongDau": "phuc-tho",
      "id": "Place_H_19",
      "nameKhongDau": "phuc-tho",
      "parentId": "Place_T_HN",
      "placeName": "Phúc Thọ",
      "placeType": "H",
      "pre": "Huyện",
      "tinh": "Hà Nội",
      "tinhKhongDau": "ha-noi",
      "type": "Place"
    }
  },
  {
    "default": {
      "code": "190",
      "codeHuyen": "190",
      "codeTinh": "CM",
      "fullName": "Huyện U Minh, Cà Mau",
      "geometry": {
        "location": {
          "lat": 9.3732824,
          "lon": 104.9545569
        },
        "viewport": {
          "northeast": {
            "lat": 9.5610929,
            "lon": 105.08738
          },
          "southwest": {
            "lat": 9.1854719,
            "lon": 104.8217338
          }
        }
      },
      "ggMatched": true,
      "gg_formatted_address": "U Minh District, Ca Mau, Vietnam",
      "huyen": "U Minh",
      "huyenKhongDau": "u-minh",
      "id": "Place_H_190",
      "nameKhongDau": "u-minh",
      "parentId": "Place_T_CM",
      "placeName": "U Minh",
      "placeType": "H",
      "pre": "Huyện",
      "tinh": "Cà Mau",
      "tinhKhongDau": "ca-mau",
      "type": "Place"
    }
  },
  {
    "default": {
      "code": "191",
      "codeHuyen": "191",
      "codeTinh": "CM",
      "fullName": "Thành phố Cà Mau, Cà Mau",
      "geometry": {
        "location": {
          "lat": 9.17538,
          "lon": 105.1871716
        },
        "viewport": {
          "northeast": {
            "lat": 9.268125399999999,
            "lon": 105.280094
          },
          "southwest": {
            "lat": 9.0826346,
            "lon": 105.0942492
          }
        }
      },
      "ggMatched": true,
      "gg_formatted_address": "Cà Mau, Ca Mau, Vietnam",
      "huyen": "Cà Mau",
      "huyenKhongDau": "ca-mau",
      "id": "Place_H_191",
      "nameKhongDau": "ca-mau",
      "parentId": "Place_T_CM",
      "placeName": "Cà Mau",
      "placeType": "H",
      "pre": "Thành phố",
      "tinh": "Cà Mau",
      "tinhKhongDau": "ca-mau",
      "type": "Place"
    }
  },
  {
    "default": {
      "code": "192",
      "codeHuyen": "192",
      "codeTinh": "CB",
      "fullName": "Huyện Bảo Lạc, Cao Bằng",
      "geometry": {
        "location": {
          "lat": 22.8758444,
          "lon": 105.7122695
        },
        "viewport": {
          "northeast": {
            "lat": 23.082137,
            "lon": 105.881589
          },
          "southwest": {
            "lat": 22.6695519,
            "lon": 105.5429499
          }
        }
      },
      "ggMatched": true,
      "gg_formatted_address": "Bảo Lạc District, Cao Bang, Vietnam",
      "huyen": "Bảo Lạc",
      "huyenKhongDau": "bao-lac",
      "id": "Place_H_192",
      "nameKhongDau": "bao-lac",
      "parentId": "Place_T_CB",
      "placeName": "Bảo Lạc",
      "placeType": "H",
      "pre": "Huyện",
      "tinh": "Cao Bằng",
      "tinhKhongDau": "cao-bang",
      "type": "Place"
    }
  },
  {
    "default": {
      "code": "193",
      "codeHuyen": "193",
      "codeTinh": "CB",
      "fullName": "Huyện Bảo Lâm, Cao Bằng",
      "geometry": {
        "location": {
          "lat": 22.8767244,
          "lon": 105.459402
        },
        "viewport": {
          "northeast": {
            "lat": 23.1206139,
            "lon": 105.6529199
          },
          "southwest": {
            "lat": 22.632835,
            "lon": 105.265884
          }
        }
      },
      "ggMatched": true,
      "gg_formatted_address": "Bảo Lâm, Cao Bằng, Vietnam",
      "huyen": "Bảo Lâm",
      "huyenKhongDau": "bao-lam",
      "id": "Place_H_193",
      "nameKhongDau": "bao-lam",
      "parentId": "Place_T_CB",
      "placeName": "Bảo Lâm",
      "placeType": "H",
      "pre": "Huyện",
      "tinh": "Cao Bằng",
      "tinhKhongDau": "cao-bang",
      "type": "Place"
    }
  },
  {
    "default": {
      "code": "194",
      "codeHuyen": "194",
      "codeTinh": "CB",
      "fullName": "Huyện Hạ Lang, Cao Bằng",
      "geometry": {
        "location": {
          "lat": 22.711419,
          "lon": 106.6954655
        },
        "viewport": {
          "northeast": {
            "lat": 22.851026,
            "lon": 106.839176
          },
          "southwest": {
            "lat": 22.5718119,
            "lon": 106.551755
          }
        }
      },
      "ggMatched": true,
      "gg_formatted_address": "Hạ Lang District, Cao Bang, Vietnam",
      "huyen": "Hạ Lang",
      "huyenKhongDau": "ha-lang",
      "id": "Place_H_194",
      "nameKhongDau": "ha-lang",
      "parentId": "Place_T_CB",
      "placeName": "Hạ Lang",
      "placeType": "H",
      "pre": "Huyện",
      "tinh": "Cao Bằng",
      "tinhKhongDau": "cao-bang",
      "type": "Place"
    }
  },
  {
    "default": {
      "code": "195",
      "codeHuyen": "195",
      "codeTinh": "CB",
      "fullName": "Huyện Hà Quảng, Cao Bằng",
      "geometry": {
        "location": {
          "lat": 22.8950215,
          "lon": 106.1095854
        },
        "viewport": {
          "northeast": {
            "lat": 23.000126,
            "lon": 106.2639339
          },
          "southwest": {
            "lat": 22.7899169,
            "lon": 105.955237
          }
        }
      },
      "ggMatched": true,
      "gg_formatted_address": "Hà Quảng District, Cao Bang, Vietnam",
      "huyen": "Hà Quảng",
      "huyenKhongDau": "ha-quang",
      "id": "Place_H_195",
      "nameKhongDau": "ha-quang",
      "parentId": "Place_T_CB",
      "placeName": "Hà Quảng",
      "placeType": "H",
      "pre": "Huyện",
      "tinh": "Cao Bằng",
      "tinhKhongDau": "cao-bang",
      "type": "Place"
    }
  },
  {
    "default": {
      "code": "196",
      "codeHuyen": "196",
      "codeTinh": "CB",
      "fullName": "Huyện Hòa An, Cao Bằng",
      "geometry": {
        "location": {
          "lat": 22.6870544,
          "lon": 106.208232
        },
        "viewport": {
          "northeast": {
            "lat": 22.8595429,
            "lon": 106.40411
          },
          "southwest": {
            "lat": 22.514566,
            "lon": 106.012354
          }
        }
      },
      "ggMatched": true,
      "gg_formatted_address": "Hòa An District, Cao Bang, Vietnam",
      "huyen": "Hòa An",
      "huyenKhongDau": "hoa-an",
      "id": "Place_H_196",
      "nameKhongDau": "hoa-an",
      "parentId": "Place_T_CB",
      "placeName": "Hòa An",
      "placeType": "H",
      "pre": "Huyện",
      "tinh": "Cao Bằng",
      "tinhKhongDau": "cao-bang",
      "type": "Place"
    }
  },
  {
    "default": {
      "code": "197",
      "codeHuyen": "197",
      "codeTinh": "CB",
      "fullName": "Huyện Nguyên Bình, Cao Bằng",
      "geometry": {
        "location": {
          "lat": 22.6479694,
          "lon": 105.9500185
        },
        "viewport": {
          "northeast": {
            "lat": 22.8008669,
            "lon": 106.173458
          },
          "southwest": {
            "lat": 22.495072,
            "lon": 105.726579
          }
        }
      },
      "ggMatched": true,
      "gg_formatted_address": "Nguyên Bình District, Cao Bang, Vietnam",
      "huyen": "Nguyên Bình",
      "huyenKhongDau": "nguyen-binh",
      "id": "Place_H_197",
      "nameKhongDau": "nguyen-binh",
      "parentId": "Place_T_CB",
      "placeName": "Nguyên Bình",
      "placeType": "H",
      "pre": "Huyện",
      "tinh": "Cao Bằng",
      "tinhKhongDau": "cao-bang",
      "type": "Place"
    }
  },
  {
    "default": {
      "code": "198",
      "codeHuyen": "198",
      "codeTinh": "CB",
      "fullName": "Huyện Phục Hòa, Cao Bằng",
      "geometry": {
        "location": {
          "lat": 22.5644469,
          "lon": 106.5003179
        },
        "viewport": {
          "northeast": {
            "lat": 22.674114,
            "lon": 106.608447
          },
          "southwest": {
            "lat": 22.4547799,
            "lon": 106.3921889
          }
        }
      },
      "ggMatched": true,
      "gg_formatted_address": "Phúc Hòa, Cao Bang, Vietnam",
      "huyen": "Phục Hòa",
      "huyenKhongDau": "phuc-hoa",
      "id": "Place_H_198",
      "nameKhongDau": "phuc-hoa",
      "parentId": "Place_T_CB",
      "placeName": "Phục Hòa",
      "placeType": "H",
      "pre": "Huyện",
      "tinh": "Cao Bằng",
      "tinhKhongDau": "cao-bang",
      "type": "Place"
    }
  },
  {
    "default": {
      "code": "199",
      "codeHuyen": "199",
      "codeTinh": "CB",
      "fullName": "Huyện Quảng Uyên, Cao Bằng",
      "geometry": {
        "location": {
          "lat": 22.6717444,
          "lon": 106.462662
        },
        "viewport": {
          "northeast": {
            "lat": 22.7940529,
            "lon": 106.5804339
          },
          "southwest": {
            "lat": 22.549436,
            "lon": 106.34489
          }
        }
      },
      "ggMatched": true,
      "gg_formatted_address": "Quảng Uyên, Cao Bằng, Vietnam",
      "huyen": "Quảng Uyên",
      "huyenKhongDau": "quang-uyen",
      "id": "Place_H_199",
      "nameKhongDau": "quang-uyen",
      "parentId": "Place_T_CB",
      "placeName": "Quảng Uyên",
      "placeType": "H",
      "pre": "Huyện",
      "tinh": "Cao Bằng",
      "tinhKhongDau": "cao-bang",
      "type": "Place"
    }
  },
  {
    "default": {
      "code": "2",
      "codeHuyen": "2",
      "codeTinh": "HN",
      "fullName": "Quận Ba Đình, Hà Nội",
      "geometry": {
        "location": {
          "lat": 21.03588,
          "lon": 105.829632
        },
        "viewport": {
          "northeast": {
            "lat": 21.055138,
            "lon": 105.857493
          },
          "southwest": {
            "lat": 21.0166219,
            "lon": 105.801771
          }
        }
      },
      "ggMatched": true,
      "gg_formatted_address": "Ba Đình, Hanoi, Vietnam",
      "huyen": "Ba Đình",
      "huyenKhongDau": "ba-dinh",
      "id": "Place_H_2",
      "nameKhongDau": "ba-dinh",
      "parentId": "Place_T_HN",
      "placeName": "Ba Đình",
      "placeType": "H",
      "pre": "Quận",
      "tinh": "Hà Nội",
      "tinhKhongDau": "ha-noi",
      "type": "Place"
    }
  },
  {
    "default": {
      "code": "20",
      "codeHuyen": "20",
      "codeTinh": "HN",
      "fullName": "Huyện Đan Phượng, Hà Nội",
      "geometry": {
        "location": {
          "lat": 21.1180839,
          "lon": 105.681806
        },
        "viewport": {
          "northeast": {
            "lat": 21.1703989,
            "lon": 105.740965
          },
          "southwest": {
            "lat": 21.065769,
            "lon": 105.6226469
          }
        }
      },
      "ggMatched": true,
      "gg_formatted_address": "Đan Phượng, Hanoi, Vietnam",
      "huyen": "Đan Phượng",
      "huyenKhongDau": "dan-phuong",
      "id": "Place_H_20",
      "nameKhongDau": "dan-phuong",
      "parentId": "Place_T_HN",
      "placeName": "Đan Phượng",
      "placeType": "H",
      "pre": "Huyện",
      "tinh": "Hà Nội",
      "tinhKhongDau": "ha-noi",
      "type": "Place"
    }
  },